Timestamp;NavState;SecurityLevel;Heading;Declination;Pitch;Roll;Depth;Temperature;Pa;Lat;Lon;DesiredH;BallastCmd;BallastPos;LinCmd;LinPos;AngCmd;AngPos;Voltage;Altitude;
19/07/2019 16:34:23;117;2048;340.78;16;36.65;-0.93;2.2;17.40;70337;4900.404;-13037.702;30;400;407.9;20;19.7;0;0.9;29.3;-1.0;
19/07/2019 16:34:33;115;2048;344.65;16;25.41;4.87;1.7;17.40;70344;4900.404;-13037.702;30;500;449.5;100;79.6;0;1.4;29.3;-1.0;
19/07/2019 16:34:43;115;2048;17.26;16;-10.19;4.55;1.1;17.40;70217;4900.404;-13037.702;30;500;505.0;100;100.1;0;0.9;29.0;-1.0;
19/07/2019 16:34:53;115;2048;350.67;16;-14.19;5.92;1.1;17.40;70171;4900.404;-13037.702;30;500;506.9;100;99.9;0;0.9;29.3;-1.0;
19/07/2019 16:35:03;116;2048;339.01;16;-9.02;7.32;1.1;17.40;70182;4900.404;-13037.702;30;500;506.9;100;99.7;0;0.9;29.3;-1.0;
19/07/2019 16:35:23;116;2048;310.90;16;-5.10;3.27;1.1;17.40;70187;4900.404;-13037.702;30;500;506.9;100;99.7;0;0.9;29.3;-1.0;
19/07/2019 16:35:43;116;2048;338.48;16;-3.49;8.34;1.1;17.40;70204;4900.404;-13037.702;30;500;506.9;100;99.7;0;0.9;29.3;-1.0;
19/07/2019 16:36:03;116;2048;346.12;16;-17.87;6.31;1.1;17.40;70199;4900.404;-13037.702;30;500;506.9;100;99.7;0;0.9;29.3;-1.0;
19/07/2019 16:36:23;116;2048;316.27;16;-4.63;5.36;1.1;17.40;70202;4900.404;-13037.702;30;500;506.9;100;99.7;0;0.9;29.3;-1.0;
19/07/2019 16:36:47;116;2048;326.10;16;-8.56;2.29;1.1;17.40;70217;4900.404;-13037.702;30;500;505.0;100;99.7;0;0.9;29.2;-1.0;
19/07/2019 16:37:07;116;2048;322.81;16;-8.21;4.17;1.1;17.40;70204;4900.404;-13037.702;30;500;506.9;100;99.7;0;0.9;29.3;-1.0;
19/07/2019 16:37:27;116;2048;321.43;16;-6.12;6.54;1.1;17.40;70214;4900.404;-13037.702;30;500;506.9;100;99.7;0;0.9;29.3;-1.0;
19/07/2019 16:37:47;116;2048;351.41;16;-8.01;6.29;1.1;17.40;70208;4900.404;-13037.702;30;500;506.9;100;99.7;0;0.9;29.3;-1.0;
19/07/2019 16:38:07;116;2048;336.61;16;-5.97;3.80;1.1;17.50;70218;4900.404;-13037.702;30;500;506.9;100;99.7;0;0.9;29.3;-1.0;
19/07/2019 16:38:27;116;2048;336.82;16;-8.55;3.90;1.1;17.50;70213;4900.404;-13037.702;30;500;506.9;100;99.7;0;0.9;29.3;-1.0;
19/07/2019 16:38:47;116;2048;326.67;16;-5.00;-0.04;1.1;17.50;70219;4900.404;-13037.702;30;500;506.9;100;99.7;0;0.9;29.3;-1.0;
19/07/2019 16:39:13;116;2048;318.96;16;-7.69;9.59;1.1;17.60;70212;4900.404;-13037.702;30;500;506.9;100;99.7;0;0.9;29.3;-1.0;
19/07/2019 16:39:33;116;2048;310.86;16;-7.04;1.71;1.1;17.60;70223;4900.404;-13037.702;30;500;506.9;100;99.7;0;0.9;29.3;-1.0;
19/07/2019 16:39:53;116;2048;321.85;16;-8.29;6.82;1.1;17.70;70222;4900.404;-13037.702;30;500;506.9;100;99.9;0;0.9;29.3;-1.0;
19/07/2019 16:40:13;116;2048;301.40;16;-7.03;1.44;1.1;17.70;70210;4900.404;-13037.702;30;500;506.9;100;99.7;0;0.9;29.3;-1.0;
19/07/2019 16:40:33;116;0;332.87;16;-12.81;3.89;1.1;17.70;70206;4900.404;-13037.702;30;500;506.9;100;99.7;0;0.9;29.3;-1.0;
19/07/2019 16:40:50;116;0;314.42;16;-4.02;-2.00;1.2;17.70;70212;4900.495;-13037.492;30;500;506.9;100;99.7;0;0.9;29.3;-1.0;
19/07/2019 16:45:15;116;0;295.69;16;-6.10;4.04;1.1;18.10;70240;4900.498;-13037.492;30;500;506.9;100;99.7;0;1.4;29.3;-1.0;
19/07/2019 16:45:35;116;0;314.99;16;-15.29;5.59;1.1;18.10;70229;4900.503;-13037.489;30;500;506.9;100;99.7;0;0.9;29.3;-1.0;
19/07/2019 16:45:55;116;0;313.75;16;-7.64;0.28;1.1;18.10;70225;4900.503;-13037.486;30;500;506.9;100;99.7;0;0.9;29.3;-1.0;
19/07/2019 16:46:15;116;0;309.77;16;-8.61;8.44;1.1;18.20;70231;4900.500;-13037.485;30;500;506.9;100;99.7;0;0.9;29.4;-1.0;
19/07/2019 16:46:35;116;0;325.97;16;-9.41;1.81;1.1;18.20;70230;4900.516;-13037.420;205;500;506.9;100;99.7;0;1.4;29.3;-1.0;
19/07/2019 16:52:11;116;0;317.47;16;-7.83;3.78;1.1;18.30;70236;4900.516;-13037.420;205;500;506.9;100;99.7;0;1.4;29.3;-1.0;
19/07/2019 16:52:31;116;0;311.85;16;-6.51;7.23;1.1;18.40;70236;4900.514;-13037.417;205;500;506.9;100;99.7;0;0.9;29.3;-1.0;
19/07/2019 16:52:51;116;0;278.04;16;-6.91;10.88;1.1;18.30;70241;4900.515;-13037.412;205;500;508.9;100;99.7;0;0.9;29.3;-1.0;
19/07/2019 16:53:11;116;0;306.44;16;-4.06;0.33;1.1;18.30;70234;4900.515;-13037.407;205;500;506.9;100;99.7;0;0.9;29.3;-1.0;
19/07/2019 16:53:31;116;0;314.58;16;-5.79;3.16;1.1;18.30;70251;4900.515;-13037.407;205;500;506.9;100;99.7;0;0.9;29.3;-1.0;
19/07/2019 16:53:51;116;0;295.98;16;-5.90;1.64;1.1;18.30;70245;4900.518;-13037.403;205;500;505.0;100;99.7;0;0.9;29.3;-1.0;
19/07/2019 16:54:11;116;0;310.45;16;-9.21;5.70;1.1;18.30;70230;4900.519;-13037.398;205;500;506.9;100;99.7;0;1.4;29.3;-1.0;
19/07/2019 16:54:31;116;0;304.67;16;-8.72;-3.55;1.1;18.40;70234;4900.521;-13037.395;205;500;506.9;100;99.7;0;0.9;29.3;-1.0;
19/07/2019 16:54:51;116;0;288.14;16;-6.57;3.89;1.1;18.30;70251;4900.522;-13037.392;205;500;506.9;100;99.7;0;0.9;29.3;-1.0;
19/07/2019 16:55:11;116;0;305.32;16;-8.02;-3.07;1.1;18.30;70239;4900.525;-13037.381;205;500;506.9;100;99.7;0;0.9;29.3;-1.0;
19/07/2019 16:55:49;116;0;308.71;16;-7.37;7.35;1.1;18.30;70236;4900.526;-13037.379;205;500;506.9;100;99.7;0;1.4;29.3;-1.0;
19/07/2019 16:56:09;116;0;319.65;16;-9.15;5.49;1.1;18.30;70231;4900.526;-13037.381;205;500;506.9;100;99.7;0;0.9;29.3;-1.0;
19/07/2019 16:56:29;116;0;307.14;16;-8.45;-2.05;1.1;18.30;70236;4900.527;-13037.375;205;500;505.0;100;99.7;0;0.9;29.3;-1.0;
19/07/2019 16:56:49;116;0;326.83;16;-6.48;-1.20;1.1;18.30;70245;4900.528;-13037.372;205;500;506.9;100;99.7;0;1.4;29.3;-1.0;
19/07/2019 16:57:09;110;0;285.72;16;-6.08;3.97;1.1;18.40;70236;4900.528;-13037.372;205;-200;398.0;100;99.7;0;1.4;29.3;-1.0;
19/07/2019 16:57:19;110;0;312.18;16;-14.07;4.12;1.1;18.40;70504;4900.528;-13037.372;205;-200;247.5;100;99.7;0;1.4;29.2;-1.0;
19/07/2019 16:57:29;110;0;309.26;16;-8.18;8.83;1.1;18.40;70696;4900.528;-13037.372;205;-200;105.0;100;99.7;0;0.9;29.2;-1.0;
19/07/2019 16:57:39;110;0;286.06;16;-5.49;-1.52;1.1;18.40;70953;4900.528;-13037.372;205;-200;-37.6;100;99.7;0;0.9;29.2;-1.0;
19/07/2019 16:57:49;110;0;315.44;16;-8.72;0.43;1.1;18.30;71183;4900.528;-13037.372;205;-200;-180.2;94;93.7;0;0.9;29.2;-1.0;
19/07/2019 16:57:59;110;0;332.05;16;-9.01;4.41;1.0;18.30;71420;4900.528;-13037.372;205;-200;-200.0;74;73.9;0;0.9;29.2;-1.0;
19/07/2019 16:58:09;110;0;302.62;16;-7.19;3.79;1.1;18.30;71426;4900.528;-13037.372;205;-200;-202.0;71;70.9;0;0.9;29.3;-1.0;
19/07/2019 16:58:19;100;0;296.06;16;-6.66;-0.87;1.1;18.30;71429;4900.528;-13037.372;205;-200;-200.0;71;70.6;0;0.9;29.3;-1.0;
19/07/2019 16:58:39;100;0;319.71;16;-11.12;1.81;1.2;18.30;71438;4900.528;-13037.372;205;-200;-202.0;71;70.8;45;45.1;29.3;0.0;
19/07/2019 16:58:59;100;0;313.75;16;-16.30;28.46;1.4;18.20;71420;4900.528;-13037.372;205;-200;-205.9;71;70.8;45;45.6;29.2;0.0;
19/07/2019 16:59:19;100;0;306.30;16;-29.76;27.92;2.0;18.20;71417;4900.528;-13037.372;205;-200;-209.9;71;70.8;45;45.1;29.3;0.0;
19/07/2019 16:59:39;100;0;300.51;16;-25.14;27.71;2.9;18.10;71420;4900.528;-13037.372;205;-200;-207.9;71;70.8;39;38.8;29.3;0.0;
19/07/2019 16:59:59;100;0;300.59;16;-24.27;20.06;4.0;18.10;71422;4900.528;-13037.372;205;-200;-209.9;71;70.8;38;37.9;29.3;0.0;
19/07/2019 17:00:19;100;0;298.32;16;-27.34;20.68;4.9;18.00;71427;4900.528;-13037.372;205;-200;-207.9;71;70.8;36;36.1;29.2;0.0;
19/07/2019 17:00:39;100;0;302.82;16;-25.72;19.77;5.9;18.00;71419;4900.528;-13037.372;205;-200;-207.9;71;70.8;38;38.4;29.3;0.0;
19/07/2019 17:00:59;100;0;300.17;16;-24.79;21.94;7.0;17.90;71418;4900.528;-13037.372;205;-200;-209.9;71;70.8;36;35.6;29.3;0.0;
19/07/2019 17:01:19;100;0;292.21;16;-24.05;20.72;8.0;17.90;71421;4900.528;-13037.372;205;-200;-209.9;71;70.8;32;32.0;29.3;0.0;
19/07/2019 17:01:39;100;0;296.07;16;-25.43;18.04;8.8;17.90;71429;4900.528;-13037.372;205;-200;-207.9;71;70.8;36;36.1;29.3;0.0;
19/07/2019 17:01:59;100;0;295.23;16;-24.84;20.96;9.7;17.80;71424;4900.528;-13037.372;205;-200;-211.9;71;70.8;35;35.2;29.2;0.0;
19/07/2019 17:02:19;100;0;289.04;16;-25.30;19.56;10.5;17.80;71420;4900.528;-13037.372;205;-200;-209.9;71;70.8;32;31.6;29.3;0.0;
19/07/2019 17:02:39;100;0;291.43;16;-23.24;17.82;11.3;17.70;71423;4900.528;-13037.372;205;-200;-207.9;71;70.8;34;33.8;29.2;0.0;
19/07/2019 17:02:59;100;0;286.04;16;-25.06;20.37;12.1;17.70;71424;4900.528;-13037.372;205;-200;-209.9;71;70.8;32;32.0;29.3;0.0;
19/07/2019 17:03:19;100;0;283.23;16;-24.44;18.22;12.9;17.70;71422;4900.528;-13037.372;205;-200;-207.9;71;70.8;31;31.1;29.3;0.0;
19/07/2019 17:03:39;100;0;286.92;16;-24.35;17.59;13.8;17.60;71424;4900.528;-13037.372;205;-200;-207.9;71;70.8;34;34.3;29.3;0.0;
19/07/2019 17:03:59;100;0;289.35;16;-25.01;21.03;14.5;17.60;71418;4900.528;-13037.372;205;-200;-209.9;71;70.8;36;36.6;29.3;0.0;
19/07/2019 17:04:19;100;0;294.71;16;-25.80;21.62;15.5;17.60;71427;4900.528;-13037.372;205;-200;-209.9;71;70.8;38;37.9;29.3;0.0;
19/07/2019 17:04:39;100;0;301.17;16;-27.79;22.04;16.6;17.50;71417;4900.528;-13037.372;205;-200;-209.9;71;70.8;41;41.1;29.2;0.0;
19/07/2019 17:04:59;100;0;308.52;16;-27.04;22.49;17.5;17.50;71407;4900.528;-13037.372;205;-200;-209.9;71;70.8;43;42.9;29.3;0.0;
19/07/2019 17:05:19;100;0;299.51;16;-28.09;24.69;18.4;17.50;71401;4900.528;-13037.372;205;-200;-207.9;71;70.8;35;35.2;29.3;0.0;
19/07/2019 17:05:39;100;0;301.97;16;-27.68;20.40;19.4;17.40;71367;4900.528;-13037.372;205;-200;-207.9;71;70.8;37;37.0;29.3;0.0;
19/07/2019 17:05:59;100;0;299.32;16;-29.29;20.97;20.2;17.40;71350;4900.528;-13037.372;205;-200;-209.9;71;70.8;36;36.1;29.3;0.0;
19/07/2019 17:06:19;100;0;300.40;16;-27.12;20.41;21.2;17.30;71321;4900.528;-13037.372;205;-200;-209.9;71;70.8;37;37.5;29.2;0.0;
19/07/2019 17:06:39;100;0;295.94;16;-29.61;22.20;22.2;17.30;71301;4900.528;-13037.372;205;-200;-207.9;71;70.8;34;33.8;29.3;0.0;
19/07/2019 17:06:59;100;0;293.41;16;-27.28;18.90;23.1;17.20;71277;4900.528;-13037.372;205;-200;-209.9;71;70.8;34;32.9;29.3;0.0;
19/07/2019 17:07:19;100;0;284.93;16;-27.90;19.54;24.1;17.20;71255;4900.528;-13037.372;205;-200;-209.9;71;70.8;29;28.9;29.3;0.0;
19/07/2019 17:07:39;100;0;276.97;16;-27.16;16.71;25.3;17.20;71236;4900.528;-13037.372;205;-200;-209.9;71;70.8;27;27.1;29.3;0.0;
19/07/2019 17:07:59;100;0;266.30;16;-27.22;15.72;26.5;17.10;71214;4900.528;-13037.372;205;-200;-207.9;71;70.8;24;23.9;29.3;0.0;
19/07/2019 17:08:19;100;0;265.57;16;-26.87;13.98;27.7;17.00;71192;4900.528;-13037.372;205;-200;-209.9;71;70.8;26;26.2;29.3;0.0;
19/07/2019 17:08:39;100;0;251.72;16;-26.75;16.14;28.8;17.00;71169;4900.528;-13037.372;205;-200;-209.9;71;70.8;20;19.9;29.2;0.0;
19/07/2019 17:08:59;118;0;249.98;16;-26.55;12.18;29.9;16.90;71144;4900.528;-13037.372;205;200;-192.1;51;50.7;0;-0.5;29.3;0.0;
19/07/2019 17:09:09;118;0;199.36;16;8.21;3.60;30.4;16.90;71037;4900.528;-13037.372;205;200;-33.7;51;51.1;0;-0.5;29.0;0.0;
19/07/2019 17:09:19;118;0;197.18;16;26.04;2.88;30.2;16.90;70826;4900.528;-13037.372;205;200;118.8;51;51.1;0;-0.5;29.0;-1.0;
19/07/2019 17:09:29;118;0;197.34;16;24.00;2.82;29.5;16.90;70566;4900.528;-13037.372;205;200;207.9;51;51.1;0;-0.5;29.0;-1.0;
19/07/2019 17:09:39;118;0;224.34;16;25.11;3.68;28.2;16.80;70429;4900.528;-13037.372;205;200;207.9;51;51.1;0;-0.5;29.3;-1.0;
19/07/2019 17:09:49;117;0;220.23;16;27.98;3.12;26.7;16.80;70423;4900.528;-13037.372;205;200;207.9;51;51.1;0;-0.5;29.3;-1.0;
19/07/2019 17:10:09;117;0;223.36;16;28.47;3.25;23.0;16.80;70427;4900.528;-13037.372;205;200;207.9;51;51.1;-7;-7.2;29.3;-1.0;
19/07/2019 17:10:29;117;0;218.29;16;28.17;-0.24;18.6;16.70;70439;4900.528;-13037.372;205;200;209.9;51;51.1;-12;-12.6;29.3;-1.0;
19/07/2019 17:10:49;117;0;220.45;16;27.27;-3.51;15.0;16.70;70487;4900.528;-13037.372;205;200;207.9;51;51.1;-17;-17.6;29.3;-1.0;
19/07/2019 17:11:09;117;0;212.86;16;27.65;-5.51;12.2;16.60;70536;4900.528;-13037.372;205;200;209.9;51;51.1;-14;-14.0;29.3;-1.0;
