Timestamp;NavState;SecurityLevel;Heading;Declination;Pitch;Roll;Depth;Temperature;Pa;Lat;Lon;DesiredH;BallastCmd;BallastPos;LinCmd;LinPos;AngCmd;AngPos;Voltage;Altitude;
19/07/2019 17:11:29;117;0;211.79;16;26.05;-3.13;9.6;16.60;70575;4900.528;-13037.372;205;200;209.9;51;51.1;-16;-15.8;29.3;-1.0;
19/07/2019 17:11:39;115;0;209.55;16;25.77;-4.82;8.3;16.60;70588;4900.528;-13037.372;205;500;221.8;100;96.7;0;0.5;29.3;-1.0;
19/07/2019 17:11:49;115;0;190.21;16;-15.13;3.92;7.2;16.60;70500;4900.528;-13037.372;205;500;370.3;100;100.4;0;0.9;29.0;-1.0;
19/07/2019 17:11:59;115;0;187.15;16;-65.80;11.07;6.9;16.60;70292;4900.528;-13037.372;205;500;506.9;100;100.4;0;0.9;29.0;-1.0;
19/07/2019 17:12:09;115;0;205.05;16;-43.15;5.80;4.0;16.60;70075;4900.528;-13037.372;205;500;506.9;100;100.4;0;0.9;29.3;-1.0;
19/07/2019 17:12:19;115;0;195.28;16;-26.03;5.95;1.5;16.60;70092;4900.528;-13037.372;205;500;508.9;100;100.3;0;0.9;29.3;-1.0;
19/07/2019 17:12:29;116;0;242.24;16;-5.63;-0.63;1.0;16.60;70117;4900.528;-13037.372;205;500;508.9;100;100.3;0;0.9;29.3;-1.0;
19/07/2019 17:12:49;116;0;309.19;16;-18.76;1.26;1.1;16.70;70127;4900.528;-13037.372;205;500;510.9;100;100.3;0;0.9;29.3;-1.0;
19/07/2019 17:13:13;116;0;287.10;16;-12.15;4.86;1.1;16.70;70140;4900.528;-13037.372;205;500;508.9;100;100.3;0;0.9;29.2;-1.0;
19/07/2019 17:13:36;116;0;301.48;16;-11.47;0.59;1.1;16.70;70142;4900.594;-13037.232;205;500;508.9;100;100.1;0;0.9;29.3;-1.0;
19/07/2019 17:13:56;116;0;302.21;16;-10.23;5.77;1.1;16.80;70148;4900.595;-13037.233;205;500;508.9;100;100.3;0;0.9;29.3;-1.0;
19/07/2019 17:14:16;116;0;310.77;16;-19.44;6.01;1.2;16.80;70164;4900.597;-13037.231;206;500;508.9;100;100.3;0;0.9;29.3;-1.0;
19/07/2019 17:14:36;116;0;300.91;16;-15.00;-6.28;1.2;16.90;70164;4900.597;-13037.229;206;500;508.9;100;100.3;0;0.9;29.3;-1.0;
19/07/2019 17:15:45;116;0;280.52;16;-11.79;1.65;1.1;17.10;70174;4900.597;-13037.229;206;500;510.9;100;100.3;0;0.9;29.3;-1.0;
19/07/2019 17:16:05;116;0;300.36;16;-5.70;6.67;1.1;17.20;70177;4900.597;-13037.229;206;500;508.9;100;100.3;0;0.9;29.3;-1.0;
19/07/2019 17:16:25;116;0;290.94;16;-9.43;2.62;1.2;17.20;70176;4900.606;-13037.208;206;500;510.9;100;100.1;0;0.9;29.3;-1.0;
19/07/2019 17:17:38;116;0;286.62;16;-10.96;8.62;1.2;17.50;70193;4900.607;-13037.207;206;500;508.9;100;100.3;0;0.9;29.3;-1.0;
19/07/2019 17:17:58;116;0;292.80;16;-3.72;-1.44;1.1;17.50;70198;4900.617;-13037.201;206;500;508.9;100;100.3;0;0.9;29.3;-1.0;
19/07/2019 17:18:18;116;0;304.65;16;-6.69;0.10;1.1;17.60;70201;4900.621;-13037.192;206;500;510.9;100;100.3;0;0.9;29.3;-1.0;
19/07/2019 17:18:44;116;0;289.52;16;-6.15;2.22;1.1;17.60;70198;4900.622;-13037.192;206;500;510.9;100;100.3;0;0.9;29.3;-1.0;
19/07/2019 17:19:04;116;0;302.37;16;-11.25;5.04;1.1;17.70;70196;4900.620;-13037.186;206;500;508.9;100;100.3;0;0.9;29.1;-1.0;
19/07/2019 17:19:24;116;0;301.76;16;-5.40;4.88;1.1;17.80;70213;4900.651;-13037.137;206;500;510.9;100;100.3;0;-8.6;29.3;-1.0;
19/07/2019 17:25:01;116;0;253.78;16;-26.17;-2.19;1.2;18.10;70217;4900.651;-13037.137;206;500;508.9;100;100.1;0;0.0;29.2;-1.0;
19/07/2019 17:25:21;116;0;261.62;16;-10.29;4.71;1.1;18.10;70220;4900.653;-13037.135;206;500;510.9;100;100.1;0;0.5;29.3;-1.0;
19/07/2019 17:25:41;116;0;293.56;16;-12.22;7.99;1.1;18.10;70223;4900.654;-13037.132;206;500;508.9;100;100.3;0;0.5;29.3;-1.0;
19/07/2019 17:26:01;116;0;310.42;16;-7.24;-0.62;1.1;18.10;70222;4900.656;-13037.131;206;500;508.9;100;100.4;0;0.5;29.3;-1.0;
19/07/2019 17:26:21;116;0;330.48;16;-26.73;8.26;1.2;18.10;70222;4900.660;-13037.131;206;500;508.9;100;100.3;0;0.5;29.3;-1.0;
19/07/2019 17:26:41;116;0;322.12;16;-11.38;0.97;1.1;18.10;70220;4900.662;-13037.130;206;500;508.9;100;100.3;0;0.5;29.3;-1.0;
19/07/2019 17:27:01;116;0;317.94;16;-30.15;-0.71;1.3;18.10;70222;4900.666;-13037.128;206;500;506.9;100;100.3;0;0.5;29.3;-1.0;
19/07/2019 17:27:21;116;0;297.88;16;-10.33;5.68;1.2;18.10;70222;4900.668;-13037.128;206;500;508.9;100;100.3;0;0.5;29.3;-1.0;
19/07/2019 17:27:41;116;0;311.76;16;-5.78;4.49;1.1;18.20;70224;4900.670;-13037.126;206;500;508.9;100;100.3;0;0.5;29.3;-1.0;
19/07/2019 17:28:01;116;0;285.21;16;-8.82;0.53;1.1;18.20;70229;4900.675;-13037.124;206;500;508.9;100;100.3;0;0.5;29.3;-1.0;
19/07/2019 17:28:38;116;0;272.46;16;-9.98;5.83;1.1;18.20;70222;4900.674;-13037.123;206;500;510.9;100;100.3;0;0.5;29.2;-1.0;
19/07/2019 17:28:58;116;0;288.64;16;-5.46;7.17;1.1;18.10;70217;4900.681;-13037.122;206;500;508.9;100;100.1;0;0.5;29.3;-1.0;
19/07/2019 17:29:20;116;0;308.19;16;-10.79;9.29;1.1;18.20;70226;4900.682;-13037.123;206;500;508.9;100;100.1;0;0.5;29.3;-1.0;
19/07/2019 17:29:40;116;0;286.41;16;-8.49;5.66;1.2;18.20;70226;4900.686;-13037.121;206;500;510.9;100;100.3;0;0.5;29.3;-1.0;
19/07/2019 17:30:04;116;0;290.86;16;-5.11;3.02;1.1;18.20;70224;4900.686;-13037.120;206;500;508.9;100;100.1;0;0.5;29.3;-1.0;
19/07/2019 17:30:24;116;0;308.87;16;-8.53;-2.03;1.1;18.20;70227;4900.688;-13037.119;206;500;508.9;100;100.1;0;0.5;29.3;-1.0;
19/07/2019 17:30:44;116;0;299.93;16;-12.48;0.39;1.1;18.20;70228;4900.691;-13037.119;206;500;508.9;100;100.3;0;0.5;29.3;-1.0;
19/07/2019 17:31:04;116;0;317.01;16;-4.61;-2.35;1.1;18.20;70233;4900.694;-13037.116;206;500;508.9;100;100.1;0;0.5;29.3;-1.0;
19/07/2019 17:31:24;116;0;315.27;16;-22.62;3.95;1.2;18.30;70226;4900.698;-13037.116;206;500;508.9;100;100.1;0;0.5;29.3;-1.0;
19/07/2019 17:31:44;116;0;310.12;16;-23.76;7.62;1.2;18.20;70218;4900.700;-13037.115;206;500;508.9;100;100.3;0;0.5;29.2;-1.0;
19/07/2019 17:32:04;116;0;319.95;16;-9.62;5.70;1.1;18.30;70223;4900.702;-13037.114;206;500;508.9;100;100.3;0;0.5;29.2;-1.0;
19/07/2019 17:32:24;116;0;289.34;16;-6.97;3.56;1.1;18.30;70223;4900.705;-13037.114;206;500;508.9;100;100.1;0;0.5;29.3;-1.0;
19/07/2019 17:32:44;110;0;302.18;16;-13.64;-4.17;1.1;18.30;70225;4900.705;-13037.114;206;-200;402.0;100;100.3;0;0.9;29.3;-1.0;
19/07/2019 17:32:54;110;0;316.64;16;-17.19;8.75;1.2;18.30;70490;4900.705;-13037.114;206;-200;245.5;100;100.3;0;0.9;29.2;-1.0;
19/07/2019 17:33:04;110;0;302.50;16;-31.08;3.72;1.3;18.30;70688;4900.705;-13037.114;206;-200;85.1;100;100.4;0;0.5;29.2;-1.0;
19/07/2019 17:33:14;110;0;318.10;16;-39.80;-3.30;1.7;18.30;70964;4900.705;-13037.114;206;-200;-93.1;100;100.4;0;0.9;29.2;-1.0;
19/07/2019 17:33:24;110;0;319.70;16;-59.92;13.86;2.2;18.30;71254;4900.705;-13037.114;206;-200;-200.0;86;85.8;0;0.9;29.2;-1.0;
19/07/2019 17:33:34;110;0;304.42;16;-50.36;2.22;2.8;18.30;71417;4900.705;-13037.114;206;-200;-202.0;71;70.9;0;0.5;29.3;-1.0;
19/07/2019 17:33:44;100;0;284.91;16;-28.00;3.77;3.6;18.30;71407;4900.705;-13037.114;206;-200;-198.0;71;70.8;0;0.5;29.3;-1.0;
19/07/2019 17:34:04;100;0;279.54;16;-27.60;3.71;5.1;18.20;71394;4900.705;-13037.114;206;-200;-196.0;71;70.8;44;44.2;29.3;0.0;
19/07/2019 17:34:24;100;0;273.39;16;-28.13;25.01;7.2;18.20;71401;4900.705;-13037.114;206;-200;-198.0;71;70.8;33;32.5;29.3;0.0;
19/07/2019 17:34:44;100;0;258.48;16;-27.56;18.32;9.5;18.20;71399;4900.705;-13037.114;206;-200;-196.0;71;70.8;22;21.7;29.3;0.0;
19/07/2019 17:35:04;100;0;245.51;16;-28.23;13.53;11.8;18.10;71409;4900.705;-13037.114;206;-200;-198.0;71;70.8;17;16.7;29.3;0.0;
19/07/2019 17:35:24;100;0;236.29;16;-27.95;10.69;14.1;18.10;71407;4900.705;-13037.114;206;-200;-198.0;71;70.8;17;16.2;29.3;0.0;
19/07/2019 17:35:44;100;0;228.80;16;-28.02;10.77;16.5;18.00;71393;4900.705;-13037.114;206;-200;-196.0;71;70.8;16;15.3;29.3;0.0;
19/07/2019 17:36:04;100;0;221.03;16;-29.21;10.08;19.0;18.00;71407;4900.705;-13037.114;206;-200;-198.0;71;70.8;15;14.9;29.3;0.0;
19/07/2019 17:36:24;100;0;192.26;16;-25.84;10.13;21.8;18.00;71391;4900.705;-13037.114;206;-200;-200.0;71;70.8;1;0.5;29.3;0.0;
19/07/2019 17:36:44;100;0;176.54;16;-27.05;3.32;23.9;17.90;71355;4900.705;-13037.114;206;-200;-196.0;71;70.8;1;0.0;29.2;0.0;
19/07/2019 17:37:04;100;0;173.50;16;-27.94;3.31;25.6;17.90;71312;4900.705;-13037.114;206;-200;-196.0;71;70.6;3;3.6;29.2;0.0;
19/07/2019 17:37:24;100;0;166.24;16;-27.61;5.32;27.4;17.80;71282;4900.705;-13037.114;206;-200;-196.0;71;70.8;2;1.8;29.3;0.0;
19/07/2019 17:37:44;100;0;160.55;16;-27.04;3.93;29.3;17.70;71249;4900.705;-13037.114;206;-200;-196.0;71;70.8;1;0.9;29.3;0.0;
19/07/2019 17:38:04;118;0;154.97;16;-27.36;3.32;31.1;17.60;71214;4900.705;-13037.114;206;200;-180.2;51;51.0;0;-0.5;29.2;0.0;
19/07/2019 17:38:14;118;0;138.75;16;0.22;3.39;32.0;17.60;71115;4900.705;-13037.114;206;200;-21.8;51;51.1;0;-0.5;29.0;0.0;
19/07/2019 17:38:24;118;0;140.91;16;20.94;3.12;31.7;17.60;70882;4900.705;-13037.114;206;200;134.7;51;51.1;0;-0.5;29.0;-1.0;
19/07/2019 17:38:34;118;0;141.88;16;25.26;3.03;30.6;17.60;70612;4900.705;-13037.114;206;200;205.9;51;51.1;0;-0.5;29.0;-1.0;
19/07/2019 17:38:44;118;0;162.21;16;27.20;3.02;29.2;17.50;70508;4900.705;-13037.114;206;200;207.9;51;51.1;0;-0.5;29.3;-1.0;
19/07/2019 17:38:54;117;0;160.46;16;28.18;2.98;27.2;17.50;70507;4900.705;-13037.114;206;200;207.9;51;51.1;0;-0.5;29.3;-1.0;
19/07/2019 17:39:14;117;0;155.00;16;29.75;3.55;22.7;17.40;70513;4900.705;-13037.114;206;200;207.9;51;51.1;0;-0.5;29.3;-1.0;
19/07/2019 17:39:34;117;0;159.86;16;27.91;2.60;16.9;17.40;70579;4900.705;-13037.114;206;200;207.9;51;51.1;-4;-4.1;29.2;-1.0;
19/07/2019 17:39:54;117;0;155.53;16;27.12;1.54;12.4;17.40;70621;4900.705;-13037.114;206;200;207.9;51;51.1;-2;-1.8;29.3;-1.0;
