Timestamp;NavState;SecurityLevel;Heading;Declination;Pitch;Roll;Depth;Temperature;Pa;Lat;Lon;DesiredH;BallastCmd;BallastPos;LinCmd;LinPos;AngCmd;AngPos;Voltage;Altitude;
19/07/2019 18:01:55;117;0;153.95;16;27.44;2.63;6.5;17.30;70668;4900.806;-13037.004;207;200;207.9;51;51.1;1;0.9;29.3;-1.0;
19/07/2019 18:02:05;115;0;151.03;16;29.86;3.11;4.2;17.30;70681;4900.806;-13037.004;207;500;223.8;100;96.4;0;-0.5;29.3;-1.0;
19/07/2019 18:02:15;115;0;130.98;16;-2.75;3.57;2.4;17.30;70584;4900.806;-13037.004;207;500;370.3;100;99.9;0;-0.5;29.0;-1.0;
19/07/2019 18:02:25;115;0;126.35;16;-47.73;8.13;3.2;17.30;70388;4900.806;-13037.004;207;500;505.0;100;100.0;0;-0.9;29.0;-1.0;
19/07/2019 18:02:35;115;0;150.46;16;-67.97;-20.22;2.7;17.30;70154;4900.806;-13037.004;207;500;506.9;100;100.0;0;-0.9;29.3;-1.0;
19/07/2019 18:02:45;115;0;146.41;16;-4.95;4.31;1.1;17.30;70175;4900.806;-13037.004;207;500;508.9;100;99.9;0;-0.5;29.3;-1.0;
19/07/2019 18:02:55;116;0;150.19;16;-11.98;3.69;1.1;17.30;70197;4900.806;-13037.004;207;500;508.9;100;99.7;0;-0.5;29.2;-1.0;
19/07/2019 18:03:15;116;0;202.85;16;-7.37;-2.25;1.1;17.30;70192;4900.806;-13037.004;207;500;508.9;100;99.7;0;-0.9;29.3;-1.0;
19/07/2019 18:03:35;116;0;242.50;16;-5.35;-1.82;1.1;17.30;70201;4900.820;-13036.946;207;500;510.9;100;99.9;0;-0.9;29.3;-1.0;
19/07/2019 18:03:55;116;0;243.00;16;-10.32;6.36;1.1;17.30;70208;4900.821;-13036.948;207;500;510.9;100;99.7;0;-0.9;29.3;-1.0;
19/07/2019 18:04:15;116;0;259.72;16;-11.59;-0.54;1.1;17.30;70208;4900.822;-13036.947;207;500;508.9;100;99.7;0;-0.5;29.3;-1.0;
19/07/2019 18:04:35;116;0;260.50;16;-6.14;-0.34;1.2;17.40;70218;4900.825;-13036.945;207;500;508.9;100;99.7;0;-0.5;29.3;-1.0;
19/07/2019 18:04:55;116;0;296.94;16;-7.44;4.35;1.1;17.40;70223;4900.829;-13036.946;207;500;508.9;100;99.7;0;-0.5;29.3;-1.0;
19/07/2019 18:05:15;116;0;279.47;16;-7.36;4.16;1.1;17.40;70221;4900.832;-13036.946;207;500;508.9;100;99.7;0;-0.9;29.3;-1.0;
19/07/2019 18:05:35;116;0;291.78;16;-10.07;-0.86;1.1;17.50;70218;4900.835;-13036.944;207;500;508.9;100;99.7;0;-0.9;29.3;-1.0;
19/07/2019 18:05:55;116;0;286.32;16;-4.81;2.59;1.2;17.50;70219;4900.839;-13036.942;207;500;508.9;100;99.7;0;-0.9;29.3;-1.0;
19/07/2019 18:06:15;116;0;284.93;16;-9.77;0.72;1.1;17.50;70232;4900.847;-13036.938;207;500;508.9;100;99.9;0;-0.9;29.3;-1.0;
19/07/2019 18:06:55;116;0;307.49;16;-5.97;1.91;1.1;17.60;70220;4900.848;-13036.939;207;500;508.9;100;99.7;0;-0.5;29.3;-1.0;
19/07/2019 18:07:15;116;0;301.45;16;-6.57;1.89;1.1;17.60;70239;4900.855;-13036.934;207;500;510.9;100;99.7;0;-0.9;29.3;-1.0;
19/07/2019 18:07:40;116;0;274.65;16;-5.48;-2.15;1.1;17.70;70233;4900.858;-13036.933;207;500;508.9;100;99.7;0;-0.5;29.3;-1.0;
19/07/2019 18:08:03;116;0;259.57;16;-10.24;1.44;1.1;17.70;70237;4900.861;-13036.930;207;500;508.9;100;99.7;0;-0.5;29.3;-1.0;
19/07/2019 18:08:24;116;0;267.81;16;-8.65;2.08;1.1;17.70;70234;4900.862;-13036.930;207;500;510.9;100;99.7;0;-0.5;29.3;-1.0;
19/07/2019 18:08:44;116;0;275.33;16;-22.62;1.61;1.2;17.80;70235;4900.865;-13036.929;207;500;508.9;100;99.7;0;-0.9;29.3;-1.0;
19/07/2019 18:09:04;116;0;260.62;16;-12.32;2.22;1.1;17.80;70237;4900.867;-13036.927;207;500;508.9;100;99.9;0;-0.9;29.3;-1.0;
19/07/2019 18:09:24;116;0;285.45;16;-17.37;-1.64;1.2;17.80;70237;4900.907;-13036.913;207;500;508.9;100;99.7;0;-0.9;29.3;-1.0;
19/07/2019 18:14:07;116;0;278.29;16;-7.95;2.56;1.1;17.90;70257;4900.908;-13036.913;207;500;508.9;100;99.7;0;-0.5;29.3;-1.0;
19/07/2019 18:14:27;116;0;267.84;16;-6.15;2.14;1.1;17.90;70251;4900.907;-13036.910;207;500;510.9;100;99.7;0;-0.9;29.2;-1.0;
19/07/2019 18:14:47;116;0;282.11;16;-15.17;3.19;1.2;17.90;70244;4900.907;-13036.910;207;500;510.9;100;99.7;0;-0.5;29.3;-1.0;
19/07/2019 18:15:07;116;0;275.54;16;-14.46;-1.89;1.1;18.00;70250;4900.913;-13036.909;207;500;508.9;100;99.9;0;-0.9;29.3;-1.0;
19/07/2019 18:15:27;116;0;273.43;16;-10.72;4.00;1.1;18.00;70252;4900.915;-13036.906;207;500;510.9;100;99.9;0;-0.5;29.3;-1.0;
19/07/2019 18:15:47;116;0;257.28;16;-10.49;2.51;1.1;18.00;70250;4900.919;-13036.905;207;500;508.9;100;99.9;0;-0.9;29.3;-1.0;
19/07/2019 18:16:07;116;0;279.03;16;-8.94;1.94;1.1;18.10;70254;4900.919;-13036.907;207;500;508.9;100;99.9;0;-0.5;29.3;-1.0;
19/07/2019 18:16:27;116;0;299.77;16;-10.48;3.98;1.1;18.10;70249;4900.920;-13036.904;207;500;508.9;100;99.7;0;-0.5;29.3;-1.0;
19/07/2019 18:16:47;116;0;286.14;16;-6.87;1.33;1.1;18.10;70254;4900.924;-13036.898;207;500;508.9;100;99.7;0;-0.5;29.3;-1.0;
19/07/2019 18:17:07;116;0;296.27;16;-5.22;2.63;1.1;18.10;70253;4900.927;-13036.900;207;500;510.9;100;99.7;0;-0.9;29.3;-1.0;
19/07/2019 18:17:27;116;0;293.79;16;-7.04;1.01;1.1;18.10;70268;4900.927;-13036.899;207;500;508.9;100;99.7;0;-0.5;29.3;-1.0;
19/07/2019 18:17:47;116;0;265.01;16;-7.37;4.55;1.1;18.20;70261;4900.929;-13036.897;207;500;508.9;100;99.7;0;-0.5;29.3;-1.0;
19/07/2019 18:18:07;116;0;265.58;16;-7.80;7.96;1.1;18.20;70253;4900.932;-13036.893;207;500;508.9;100;99.7;0;-0.9;29.3;-1.0;
19/07/2019 18:18:27;116;0;275.51;16;-7.34;2.81;1.2;18.20;70261;4900.934;-13036.892;207;500;508.9;100;99.9;0;-0.5;29.3;-1.0;
19/07/2019 18:18:47;116;0;288.78;16;-24.98;4.63;1.2;18.20;70254;4900.938;-13036.888;207;500;508.9;100;99.7;0;-0.9;29.3;-1.0;
19/07/2019 18:19:12;116;0;255.85;16;-12.80;4.87;1.2;18.20;70264;4900.938;-13036.888;207;500;508.9;100;99.7;0;-0.9;29.3;-1.0;
19/07/2019 18:19:32;116;0;270.48;16;-5.78;2.81;1.2;18.30;70269;4900.941;-13036.887;207;500;508.9;100;99.9;0;-0.9;29.2;-1.0;
19/07/2019 18:19:52;110;0;281.78;16;-18.26;2.68;1.1;18.30;70270;4900.941;-13036.887;207;-200;402.0;100;99.7;0;-0.5;29.3;-1.0;
19/07/2019 18:20:02;110;0;262.76;16;-12.77;3.96;1.1;18.30;70528;4900.941;-13036.887;207;-200;247.5;100;99.7;0;-0.9;29.2;-1.0;
19/07/2019 18:20:12;110;0;269.48;16;-23.61;3.69;1.3;18.30;70736;4900.941;-13036.887;207;-200;83.2;100;99.9;0;-0.5;29.2;-1.0;
19/07/2019 18:20:22;110;0;263.83;16;-46.48;6.47;1.8;18.30;71002;4900.941;-13036.887;207;-200;-97.0;100;100.0;0;-0.9;29.2;-1.0;
19/07/2019 18:20:32;110;0;279.58;16;-61.72;3.04;2.3;18.30;71297;4900.941;-13036.887;207;-200;-200.0;85;84.9;0;-0.5;29.2;-1.0;
19/07/2019 18:20:42;110;0;271.79;16;-49.36;-4.39;2.9;18.30;71451;4900.941;-13036.887;207;-200;-200.0;72;72.0;0;-0.9;29.3;-1.0;
19/07/2019 18:20:52;100;0;265.96;16;-29.21;4.60;3.8;18.30;71442;4900.941;-13036.887;207;-200;-198.0;71;70.9;0;-0.9;29.2;-1.0;
19/07/2019 18:21:12;100;0;253.69;16;-30.78;2.70;5.5;18.30;71445;4900.941;-13036.887;207;-200;-198.0;71;70.9;0;-0.5;29.3;0.0;
19/07/2019 18:21:32;100;0;256.03;16;-30.61;3.16;7.8;18.30;71430;4900.941;-13036.887;207;-200;-198.0;71;70.9;36;36.6;29.2;0.0;
19/07/2019 18:21:52;100;0;251.87;16;-28.39;20.96;10.0;18.20;71433;4900.941;-13036.887;207;-200;-200.0;71;70.9;27;27.1;29.3;0.0;
19/07/2019 18:22:12;100;0;239.54;16;-29.09;15.40;12.4;18.20;71435;4900.941;-13036.887;207;-200;-198.0;71;70.9;18;17.6;29.2;0.0;
19/07/2019 18:22:32;100;0;229.67;16;-28.41;11.07;14.9;18.20;71422;4900.941;-13036.887;207;-200;-198.0;71;70.9;13;13.1;29.2;0.0;
19/07/2019 18:22:52;100;0;220.80;16;-28.93;8.98;17.5;18.10;71429;4900.941;-13036.887;207;-200;-196.0;71;70.9;11;10.8;29.2;0.0;
19/07/2019 18:23:12;100;0;201.65;16;-28.82;8.13;20.2;18.10;71420;4900.941;-13036.887;207;-200;-198.0;71;70.9;3;3.2;29.2;0.0;
19/07/2019 18:23:32;100;0;178.79;16;-27.39;4.25;22.6;18.00;71391;4900.941;-13036.887;207;-200;-196.0;71;70.9;3;2.7;29.3;0.0;
19/07/2019 18:23:52;100;0;177.97;16;-27.46;4.32;24.5;18.00;71352;4900.941;-13036.887;207;-200;-198.0;71;70.8;0;0.0;29.2;0.0;
19/07/2019 18:24:12;100;0;171.50;16;-27.60;3.01;26.4;17.90;71322;4900.941;-13036.887;207;-200;-198.0;71;70.8;0;-0.5;29.3;0.0;
19/07/2019 18:24:32;100;0;169.53;16;-27.64;3.02;28.2;17.90;71290;4900.941;-13036.887;207;-200;-198.0;71;70.8;1;0.9;29.2;0.0;
19/07/2019 18:24:52;100;0;159.22;16;-27.64;4.00;30.1;17.80;71242;4900.941;-13036.887;207;-200;-196.0;71;70.8;-3;-3.6;29.2;0.0;
19/07/2019 18:25:12;100;0;158.82;16;-27.11;1.38;32.1;17.70;71207;4900.941;-13036.887;207;-200;-198.0;71;70.8;-1;-0.5;29.2;0.0;
19/07/2019 18:25:32;100;0;159.14;16;-26.83;3.44;34.2;17.60;71169;4900.941;-13036.887;207;-200;-198.0;71;70.8;0;-0.5;29.3;0.0;
19/07/2019 18:25:52;100;0;156.81;16;-27.28;2.84;36.3;17.60;71117;4900.941;-13036.887;207;-200;-196.0;71;70.8;-1;-0.9;29.2;0.0;
19/07/2019 18:26:12;100;0;150.77;16;-26.26;2.80;38.3;17.50;71086;4900.941;-13036.887;207;-200;-196.0;71;70.8;-5;-5.0;29.2;0.0;
19/07/2019 18:26:32;100;0;146.71;16;-27.07;0.73;40.3;17.40;71059;4900.941;-13036.887;207;-200;-198.0;71;70.8;-6;-5.9;29.3;0.0;
19/07/2019 18:26:52;100;0;141.71;16;-27.11;0.18;42.1;17.30;71019;4900.941;-13036.887;207;-200;-196.0;71;70.8;-9;-9.0;29.2;0.0;
19/07/2019 18:27:12;100;0;139.48;16;-26.88;-1.10;43.8;17.20;70992;4900.941;-13036.887;207;-200;-196.0;71;70.8;-11;-11.3;29.3;0.0;
19/07/2019 18:27:32;100;0;141.12;16;-26.58;-2.25;45.4;17.20;70961;4900.941;-13036.887;207;-200;-196.0;71;70.9;-10;-9.9;29.2;0.0;
19/07/2019 18:27:52;100;0;140.87;16;-27.31;-1.16;47.0;17.10;70936;4900.941;-13036.887;207;-200;-196.0;71;70.9;-13;-13.1;29.2;0.0;
19/07/2019 18:28:12;100;0;143.33;16;-26.77;-3.12;48.5;17.00;70924;4900.941;-13036.887;207;-200;-196.0;71;70.8;-12;-12.2;29.2;0.0;
19/07/2019 18:28:32;100;0;140.83;16;-26.65;-2.21;50.0;16.90;70884;4900.941;-13036.887;207;-200;-196.0;71;70.8;-17;-17.1;29.2;0.0;
19/07/2019 18:28:52;100;0;140.04;16;-26.84;-5.07;51.3;16.80;70855;4900.941;-13036.887;207;-200;-196.0;71;70.8;-18;-18.1;29.2;0.0;
19/07/2019 18:29:12;100;0;135.90;16;-27.30;-5.48;52.6;16.70;70828;4900.941;-13036.887;207;-200;-196.0;71;70.8;-23;-23.0;29.3;0.0;
19/07/2019 18:29:32;100;0;134.36;16;-27.80;-7.85;54.2;16.70;70800;4900.941;-13036.887;207;-200;-196.0;71;70.8;-25;-24.8;29.2;0.0;
19/07/2019 18:29:52;100;0;135.90;16;-26.06;-8.67;55.8;16.60;70771;4900.941;-13036.887;207;-200;-196.0;71;70.8;-26;-26.2;29.3;0.0;
19/07/2019 18:30:12;100;0;136.04;16;-27.00;-9.25;57.4;16.50;70747;4900.941;-13036.887;207;-200;-196.0;71;70.8;-25;-24.8;29.3;0.0;
19/07/2019 18:30:32;100;0;136.38;16;-26.95;-8.10;58.9;16.40;70722;4900.941;-13036.887;207;-200;-196.0;71;70.8;-25;-23.9;29.2;0.0;
19/07/2019 18:30:52;100;0;138.63;16;-26.99;-8.18;60.4;16.30;70690;4900.941;-13036.887;207;-200;-196.0;71;70.8;-24;-23.9;29.3;0.0;
19/07/2019 18:31:12;100;0;141.10;16;-26.92;-7.81;61.8;16.20;70672;4900.941;-13036.887;207;-200;-196.0;71;70.8;-23;-23.0;29.2;0.0;
19/07/2019 18:31:32;100;0;145.05;16;-26.60;-7.18;63.4;16.20;70654;4900.941;-13036.887;207;-200;-196.0;71;70.8;-21;-21.2;29.2;0.0;
19/07/2019 18:31:52;100;0;148.54;16;-26.46;-6.23;65.0;16.10;70621;4900.941;-13036.887;207;-200;-196.0;71;70.8;-21;-20.3;29.2;0.0;
19/07/2019 18:32:12;100;0;153.70;16;-26.57;-6.23;66.5;16.00;70603;4900.941;-13036.887;207;-200;-196.0;71;70.8;-19;-18.5;29.3;0.0;
19/07/2019 18:32:32;100;0;152.88;16;-26.96;-5.10;68.1;15.90;70579;4900.941;-13036.887;207;-200;-196.0;71;70.8;-21;-21.2;29.2;0.0;
19/07/2019 18:32:52;100;0;150.74;16;-26.64;-6.83;69.7;15.80;70561;4900.941;-13036.887;207;-200;-196.0;71;70.8;-23;-23.5;29.3;0.0;
19/07/2019 18:33:12;100;0;156.03;16;-26.41;-7.96;71.4;15.70;70529;4900.941;-13036.887;207;-200;-196.0;71;70.8;-19;-19.0;29.3;0.0;
19/07/2019 18:33:32;100;0;160.55;16;-26.16;-5.23;73.1;15.60;70514;4900.941;-13036.887;207;-200;-196.0;71;70.9;-18;-18.1;29.3;0.0;
19/07/2019 18:33:52;100;0;162.80;16;-25.77;-5.21;74.8;15.50;70493;4900.941;-13036.887;207;-200;-196.0;71;70.8;-18;-18.5;29.2;0.0;
19/07/2019 18:34:12;100;0;158.28;16;-26.12;-5.23;76.3;15.50;70478;4900.941;-13036.887;207;-200;-196.0;71;70.9;-21;-21.2;29.2;0.0;
19/07/2019 18:34:32;100;0;153.16;16;-26.15;-6.94;77.8;15.40;70458;4900.941;-13036.887;207;-200;-196.0;71;70.8;-24;-23.9;29.3;0.0;
19/07/2019 18:34:52;100;0;153.19;16;-25.82;-8.40;79.3;15.30;70446;4900.941;-13036.887;207;-200;-196.0;71;70.8;-23;-22.6;29.3;0.0;
19/07/2019 18:35:12;100;0;159.19;16;-25.93;-7.22;80.7;15.20;70418;4900.941;-13036.887;207;-200;-196.0;71;70.8;-19;-18.5;29.2;0.0;
19/07/2019 18:35:32;100;0;156.07;16;-26.04;-5.07;81.9;15.10;70408;4900.941;-13036.887;207;-200;-196.0;71;70.8;-22;-22.1;29.3;0.0;
19/07/2019 18:35:52;100;0;154.83;16;-25.66;-7.32;83.3;15.10;70393;4900.941;-13036.887;207;-200;-196.0;71;70.8;-23;-23.0;29.3;0.0;
19/07/2019 18:36:12;100;0;153.89;16;-25.81;-7.89;84.5;15.00;70370;4900.941;-13036.887;207;-200;-196.0;71;70.8;-23;-23.5;29.3;0.0;
19/07/2019 18:36:32;100;0;147.16;16;-25.82;-7.90;85.8;14.90;70367;4900.941;-13036.887;207;-200;-196.0;71;70.8;-26;-26.6;29.2;0.0;
19/07/2019 18:36:52;100;0;143.96;16;-25.95;-9.54;87.0;14.80;70344;4900.941;-13036.887;207;-200;-196.0;71;70.8;-27;-27.1;29.2;0.0;
19/07/2019 18:37:12;100;0;140.31;16;-26.18;-9.57;88.1;14.80;70334;4900.941;-13036.887;207;-200;-198.0;71;70.8;-27;-27.1;29.2;0.0;
19/07/2019 18:37:32;100;0;136.96;16;-26.30;-9.60;89.1;14.70;70325;4900.941;-13036.887;207;-200;-196.0;71;70.8;-28;-28.4;29.3;0.0;
19/07/2019 18:37:52;100;0;143.39;16;-25.29;-10.53;90.3;14.60;70302;4900.941;-13036.887;207;-200;-196.0;71;70.8;-23;-22.6;29.3;0.0;
19/07/2019 18:38:12;100;0;151.76;16;-25.20;-7.04;91.4;14.60;70281;4900.941;-13036.887;207;-200;-196.0;71;70.8;-19;-19.0;29.3;0.0;
19/07/2019 18:38:32;100;0;160.47;16;-25.92;-5.50;92.6;14.50;70273;4900.941;-13036.887;207;-200;-198.0;71;70.8;-15;-14.9;29.3;0.0;
19/07/2019 18:38:52;100;0;170.69;16;-23.87;-3.37;93.9;14.40;70269;4900.941;-13036.887;207;-200;-196.0;71;70.8;-12;-12.2;29.3;0.0;
19/07/2019 18:39:12;100;0;176.80;16;-24.78;-2.16;95.1;14.40;70256;4900.941;-13036.887;207;-200;-196.0;71;70.8;-12;-11.7;29.3;0.0;
19/07/2019 18:39:32;100;0;183.12;16;-24.26;-2.19;96.2;14.30;70232;4900.941;-13036.887;207;-200;-196.0;71;70.8;-11;-10.4;29.3;0.0;
19/07/2019 18:39:52;100;0;189.58;16;-23.85;-1.34;97.2;14.20;70236;4900.941;-13036.887;207;-200;-196.0;71;70.8;-10;-9.9;29.2;0.0;
19/07/2019 18:40:13;100;0;189.93;16;-24.27;-1.36;98.1;14.10;70221;4900.941;-13036.887;207;-200;-196.0;71;70.8;-12;-12.2;29.2;0.0;
19/07/2019 18:40:33;118;0;192.15;16;-24.85;-2.81;99.0;14.10;70214;4900.941;-13036.887;207;200;-178.2;51;50.7;0;0.9;29.3;0.0;
19/07/2019 18:40:43;118;0;160.59;16;8.39;4.05;99.4;14.00;70125;4900.941;-13036.887;207;200;-17.8;51;51.1;0;0.5;28.9;0.0;
19/07/2019 18:40:53;118;0;161.15;16;28.07;3.55;98.8;14.00;69916;4900.941;-13036.887;207;200;134.7;51;51.1;0;0.5;28.9;-1.0;
19/07/2019 18:41:03;118;0;160.99;16;28.69;3.56;97.6;14.00;69657;4900.941;-13036.887;207;200;205.9;51;51.1;0;0.5;28.9;-1.0;
19/07/2019 18:41:13;118;0;187.91;16;31.04;3.22;95.7;14.00;69548;4900.941;-13036.887;207;200;205.9;51;51.1;0;0.5;29.3;-1.0;
19/07/2019 18:41:23;117;0;182.79;16;32.45;3.51;93.1;13.90;69543;4900.941;-13036.887;207;200;205.9;51;51.1;0;0.5;29.3;-1.0;
19/07/2019 18:41:43;117;0;168.17;16;32.36;3.65;87.6;13.80;69537;4900.941;-13036.887;207;200;205.9;51;51.1;26;26.2;29.3;-1.0;
19/07/2019 18:42:03;117;0;182.16;16;31.35;16.46;81.3;13.70;69534;4900.941;-13036.887;207;200;205.9;51;51.1;15;14.4;29.3;-1.0;
19/07/2019 18:42:23;117;0;183.84;16;31.89;10.33;75.3;13.70;69530;4900.941;-13036.887;207;200;205.9;51;51.1;15;14.0;29.2;-1.0;
19/07/2019 18:42:43;117;0;184.57;16;31.29;9.70;69.4;13.60;69548;4900.941;-13036.887;207;200;205.9;51;51.1;15;14.0;29.2;-1.0;
19/07/2019 18:43:03;117;0;180.65;16;30.86;9.76;63.9;13.60;69562;4900.941;-13036.887;207;200;205.9;51;51.1;18;18.1;29.3;-1.0;
19/07/2019 18:43:23;117;0;179.34;16;30.85;12.49;58.4;13.50;69573;4900.941;-13036.887;207;200;205.9;51;51.1;18;18.5;29.2;-1.0;
19/07/2019 18:43:43;117;0;184.44;16;31.11;12.70;52.8;13.50;69600;4900.941;-13036.887;207;200;205.9;51;51.1;14;13.5;29.2;-1.0;
19/07/2019 18:44:03;117;0;179.52;16;29.94;9.60;47.3;13.40;69650;4900.941;-13036.887;207;200;205.9;51;51.1;18;18.1;29.2;-1.0;
19/07/2019 18:44:23;117;0;183.59;16;29.75;11.92;42.3;13.40;69682;4900.941;-13036.887;207;200;205.9;51;51.1;15;14.9;29.3;-1.0;
19/07/2019 18:44:43;117;0;179.94;16;29.27;9.80;37.1;13.40;69720;4900.941;-13036.887;207;200;205.9;51;51.1;18;18.1;29.3;-1.0;
19/07/2019 18:45:03;117;0;184.79;16;29.21;12.24;32.1;13.40;69768;4900.941;-13036.887;207;200;205.9;51;51.1;14;13.5;29.2;-1.0;
19/07/2019 18:45:23;117;0;180.34;16;29.45;9.93;27.2;13.40;69826;4900.941;-13036.887;207;200;205.9;51;51.1;17;17.6;29.3;-1.0;
19/07/2019 18:45:43;117;0;184.84;16;28.55;11.50;22.3;13.40;69892;4900.941;-13036.887;207;200;205.9;51;51.1;15;14.9;29.2;-1.0;
19/07/2019 18:46:03;117;0;187.33;16;27.52;10.09;17.3;13.40;69997;4900.941;-13036.887;207;200;205.9;51;51.1;13;12.6;29.2;-1.0;
19/07/2019 18:46:23;117;0;188.57;16;26.33;9.12;12.9;13.50;70100;4900.941;-13036.887;207;200;205.9;51;51.1;14;14.0;29.2;-1.0;
