Timestamp;NavState;SecurityLevel;Heading;Declination;Pitch;Roll;Depth;Temperature;Pa;Lat;Lon;DesiredH;BallastCmd;BallastPos;LinCmd;LinPos;AngCmd;AngPos;Voltage;Altitude;
19/07/2019 18:46:43;117;0;193.60;16;26.15;10.32;8.7;13.50;70176;4900.941;-13036.887;207;200;207.9;51;51.1;14;14.9;29.2;-1.0;
19/07/2019 18:46:53;115;0;193.34;16;27.07;9.15;6.6;13.60;70203;4900.941;-13036.887;207;500;219.8;100;96.1;0;-0.9;29.3;-1.0;
19/07/2019 18:47:03;115;0;166.37;16;-2.66;3.12;4.9;13.60;70129;4900.941;-13036.887;207;500;370.3;100;99.9;0;-0.9;29.0;-1.0;
19/07/2019 18:47:13;115;0;160.02;16;-51.04;3.36;5.7;13.60;69938;4900.941;-13036.887;207;500;505.0;100;100.0;0;-0.9;29.0;-1.0;
19/07/2019 18:47:23;115;0;183.80;16;-66.53;-2.75;5.2;13.70;69719;4900.941;-13036.887;207;500;505.0;100;100.0;0;-0.9;29.3;-1.0;
19/07/2019 18:47:33;115;0;183.58;16;-20.40;3.34;1.9;13.70;69747;4900.941;-13036.887;207;500;506.9;100;99.9;0;-0.9;29.3;-1.0;
19/07/2019 18:47:43;116;0;217.09;16;-9.56;-0.05;1.1;13.70;69758;4900.941;-13036.887;207;500;508.9;100;99.7;0;-0.9;29.2;-1.0;
19/07/2019 18:48:03;116;0;248.34;16;-6.24;-3.59;1.2;13.80;69803;4900.941;-13036.887;207;500;508.9;100;99.9;0;-0.9;29.3;-1.0;
19/07/2019 18:48:23;116;0;270.03;16;-7.53;4.87;1.3;13.90;69828;4900.837;-13036.597;207;500;510.9;100;99.7;0;-0.9;29.3;-1.0;
19/07/2019 18:48:43;116;0;252.31;16;-9.48;0.17;1.2;14.00;69854;4900.838;-13036.590;207;500;508.9;100;99.9;0;-0.9;29.3;-1.0;
19/07/2019 18:49:03;116;0;248.83;16;-7.09;2.42;1.2;14.10;69864;4900.839;-13036.590;207;500;508.9;100;99.7;0;-0.9;29.3;-1.0;
19/07/2019 18:49:23;116;0;268.12;16;-9.60;2.86;1.2;14.20;69880;4900.840;-13036.585;207;500;510.9;100;99.7;0;-0.9;29.3;-1.0;
19/07/2019 18:49:43;116;0;260.39;16;-4.55;4.77;1.2;14.30;69896;4900.842;-13036.585;207;500;510.9;100;99.9;0;-0.9;29.3;-1.0;
19/07/2019 18:50:03;116;0;263.59;16;-7.13;4.22;1.2;14.40;69909;4900.844;-13036.580;207;500;508.9;100;99.9;0;-0.9;29.3;-1.0;
19/07/2019 18:50:33;116;0;267.47;16;-9.99;3.73;1.2;14.50;69926;4900.845;-13036.580;207;500;508.9;100;99.9;0;-0.9;29.2;-1.0;
19/07/2019 18:50:53;116;0;290.34;16;-6.49;3.85;1.2;14.60;69947;4900.851;-13036.570;207;500;508.9;100;99.7;0;-0.9;29.3;-1.0;
19/07/2019 18:51:20;116;0;253.43;16;-7.82;1.73;1.2;14.70;69948;4900.852;-13036.568;207;500;508.9;100;99.7;0;-0.9;29.3;-1.0;
19/07/2019 18:51:40;116;0;278.84;16;-6.22;1.61;1.2;14.80;69960;4900.852;-13036.567;207;500;508.9;100;99.7;0;-0.9;29.2;-1.0;
19/07/2019 18:52:00;116;0;236.51;16;-11.08;4.88;1.2;14.90;69968;4900.859;-13036.560;207;500;510.9;100;99.9;0;-0.9;29.3;-1.0;
19/07/2019 18:52:21;116;0;277.42;16;-7.06;-0.34;1.2;15.00;69974;4900.862;-13036.557;207;500;508.9;100;99.7;0;-0.9;29.2;-1.0;
19/07/2019 18:52:41;116;0;274.87;16;-7.29;1.63;1.2;15.10;69990;4900.865;-13036.553;207;500;508.9;100;99.7;0;-0.9;29.3;-1.0;
19/07/2019 18:53:01;116;0;231.48;16;-11.92;7.94;1.3;15.20;70006;4900.868;-13036.548;207;500;510.9;100;99.7;0;-0.9;29.3;-1.0;
19/07/2019 18:53:22;116;0;251.04;16;-7.01;-0.55;1.2;15.30;70008;4900.868;-13036.549;207;500;510.9;100;99.9;0;-0.9;29.2;-1.0;
19/07/2019 18:53:42;116;0;252.31;16;-14.98;2.17;1.2;15.40;70015;4900.868;-13036.549;207;500;508.9;100;99.9;0;-0.9;29.3;-1.0;
19/07/2019 18:54:02;116;0;265.09;16;-6.38;-0.03;1.2;15.50;70012;4900.868;-13036.550;207;500;508.9;100;99.7;0;-0.9;29.3;-1.0;
19/07/2019 18:54:22;116;0;260.46;16;-10.48;6.28;1.2;15.60;70026;4900.872;-13036.542;208;500;510.9;100;99.7;0;-0.9;29.3;-1.0;
19/07/2019 18:54:42;116;0;244.15;16;-15.60;2.16;1.3;15.70;70034;4900.871;-13036.533;208;500;508.9;100;99.9;0;-0.9;29.2;-1.0;
19/07/2019 18:56:05;116;0;247.62;16;-3.84;4.00;1.2;16.10;70050;4900.871;-13036.533;208;500;508.9;100;99.9;0;-0.9;29.3;-1.0;
19/07/2019 18:56:25;116;0;275.41;16;-12.33;5.07;1.2;16.20;70054;4900.871;-13036.534;208;500;508.9;100;99.9;0;-0.9;29.3;-1.0;
19/07/2019 18:56:45;116;0;274.26;16;-16.66;4.23;1.3;16.30;70064;4900.871;-13036.532;208;500;510.9;100;99.9;0;-0.9;29.3;-1.0;
19/07/2019 18:57:05;116;0;254.51;16;-6.63;10.16;1.3;16.30;70058;4900.872;-13036.530;208;500;510.9;100;99.7;0;-0.9;29.3;-1.0;
19/07/2019 18:57:25;116;0;235.58;16;-8.84;-0.67;1.3;16.40;70068;4900.874;-13036.526;208;500;508.9;100;99.9;0;-0.9;29.3;-1.0;
19/07/2019 18:57:45;116;0;254.89;16;-6.82;-3.35;1.2;16.40;70073;4900.875;-13036.520;208;500;510.9;100;99.9;0;-0.9;29.3;-1.0;
19/07/2019 18:58:23;116;0;260.65;16;-8.08;1.82;1.2;16.50;70079;4900.875;-13036.518;208;500;510.9;100;99.9;0;-0.9;29.2;-1.0;
19/07/2019 18:58:43;116;0;256.32;16;-17.41;2.85;1.2;16.60;70087;4900.877;-13036.514;208;500;508.9;100;99.7;0;-0.9;29.3;-1.0;
19/07/2019 18:59:03;116;0;282.17;16;-4.63;5.51;1.2;16.60;70097;4900.877;-13036.515;208;500;508.9;100;99.9;0;-0.9;29.3;-1.0;
19/07/2019 18:59:23;116;0;300.01;16;-20.81;2.37;1.4;16.70;70087;4900.878;-13036.514;208;500;508.9;100;99.9;0;-0.9;29.3;-1.0;
19/07/2019 18:59:43;116;0;258.48;16;-6.78;7.50;1.2;16.70;70098;4900.898;-13036.466;208;500;508.9;100;99.9;0;-0.9;29.3;-1.0;
19/07/2019 19:04:26;116;0;316.32;16;-5.33;5.76;1.2;17.10;70133;4900.898;-13036.466;208;500;508.9;100;100.0;0;-0.9;29.3;-1.0;
19/07/2019 19:04:46;116;0;277.80;16;-12.28;4.46;1.3;17.10;70137;4900.902;-13036.461;208;500;508.9;100;99.7;0;-0.9;29.3;-1.0;
19/07/2019 19:05:06;116;0;264.47;16;-6.05;2.89;1.2;17.10;70148;4900.903;-13036.460;208;500;508.9;100;99.7;0;-0.9;29.3;-1.0;
19/07/2019 19:05:26;116;0;257.58;16;-11.17;2.22;1.2;17.20;70140;4900.904;-13036.456;208;500;510.9;100;99.9;0;-0.9;29.3;-1.0;
19/07/2019 19:05:46;116;0;270.70;16;-4.77;-3.39;1.2;17.20;70153;4900.906;-13036.452;208;500;510.9;100;99.9;0;-0.9;29.3;-1.0;
19/07/2019 19:06:06;116;0;265.31;16;-12.06;6.65;1.3;17.20;70147;4900.908;-13036.444;208;500;508.9;100;99.9;0;-0.9;29.3;-1.0;
19/07/2019 19:06:26;116;0;252.49;16;-7.80;4.86;1.2;17.30;70154;4900.911;-13036.443;208;500;510.9;100;99.7;0;-0.9;29.3;-1.0;
19/07/2019 19:06:46;116;0;239.54;16;-19.46;7.81;1.2;17.30;70151;4900.912;-13036.442;208;500;510.9;100;99.7;0;-0.9;29.3;-1.0;
19/07/2019 19:07:12;116;0;251.27;16;-5.46;-1.29;1.2;17.40;70153;4900.912;-13036.443;208;500;508.9;100;99.9;0;-0.9;29.3;-1.0;
19/07/2019 19:07:32;116;0;257.36;16;-17.72;-3.89;1.3;17.40;70151;4900.913;-13036.436;208;500;510.9;100;99.9;0;-0.9;29.4;-1.0;
19/07/2019 19:07:52;116;0;256.03;16;-16.07;3.62;1.2;17.50;70168;4900.919;-13036.423;208;500;510.9;100;99.9;0;-0.9;29.2;-1.0;
19/07/2019 19:09:01;116;0;264.42;16;-12.79;-0.88;1.2;17.70;70167;4900.945;-13036.361;208;500;508.9;100;99.9;0;-0.9;29.3;-1.0;
19/07/2019 19:14:37;116;0;293.03;16;-6.35;5.15;1.2;18.10;70192;4900.946;-13036.360;208;500;510.9;100;99.7;0;-0.9;29.2;-1.0;
19/07/2019 19:14:57;116;0;267.07;16;-34.60;2.15;1.3;18.10;70192;4900.947;-13036.362;208;500;508.9;100;99.9;0;-0.9;29.3;-1.0;
19/07/2019 19:15:17;116;0;282.90;16;-9.13;-1.75;1.2;18.10;70197;4900.947;-13036.356;208;500;508.9;100;99.7;0;-0.9;29.2;-1.0;
19/07/2019 19:15:37;116;0;249.39;16;-11.44;3.78;1.2;18.10;70194;4900.949;-13036.354;208;500;510.9;100;99.9;0;-0.9;29.3;-1.0;
19/07/2019 19:15:57;116;0;263.94;16;-7.97;0.36;1.2;18.10;70192;4900.952;-13036.346;208;500;510.9;100;99.9;0;-0.9;29.3;-1.0;
19/07/2019 19:16:17;116;0;273.92;16;-30.65;5.73;1.3;18.10;70196;4900.953;-13036.345;208;500;508.9;100;99.9;0;-0.9;29.3;-1.0;
19/07/2019 19:16:37;116;0;228.39;16;-12.20;5.93;1.3;18.10;70201;4900.954;-13036.340;208;500;510.9;100;99.9;0;-0.9;29.3;-1.0;
19/07/2019 19:16:57;116;0;251.04;16;-7.72;3.11;1.2;18.10;70198;4900.954;-13036.335;208;500;508.9;100;99.7;0;-0.9;29.2;-1.0;
19/07/2019 19:17:17;116;0;261.79;16;-13.44;4.37;1.2;18.10;70198;4900.955;-13036.334;208;500;508.9;100;99.7;0;-0.9;29.2;-1.0;
19/07/2019 19:17:37;116;0;248.29;16;-9.85;-1.58;1.3;18.10;70201;4900.959;-13036.321;208;500;508.9;100;99.9;0;-0.9;29.2;-1.0;
19/07/2019 19:18:15;116;0;250.36;16;-5.67;0.42;1.2;18.10;70196;4900.959;-13036.320;208;500;508.9;100;99.9;0;-0.9;29.3;-1.0;
19/07/2019 19:18:35;116;0;251.27;16;-5.86;-2.79;1.2;18.10;70206;4900.961;-13036.316;208;500;508.9;100;99.9;0;-0.9;29.3;-1.0;
19/07/2019 19:18:55;116;0;260.12;16;-8.09;3.59;1.2;18.10;70198;4900.963;-13036.311;208;500;508.9;100;99.9;0;-0.9;29.3;-1.0;
19/07/2019 19:19:15;116;0;240.31;16;-9.69;0.05;1.2;18.10;70202;4900.961;-13036.310;208;500;508.9;100;99.9;0;-0.9;29.3;-1.0;
19/07/2019 19:19:35;116;0;233.28;16;-8.02;3.71;1.2;18.10;70193;4900.961;-13036.309;208;500;508.9;100;99.9;0;-0.9;29.3;-1.0;
19/07/2019 19:19:55;116;0;256.63;16;-10.37;3.48;1.3;18.20;70201;4900.963;-13036.303;208;500;508.9;100;99.9;0;-0.9;29.1;-1.0;
19/07/2019 19:20:15;116;0;265.45;16;-10.13;3.07;1.2;18.20;70202;4900.979;-13036.241;208;500;508.9;100;99.9;0;-0.9;29.1;-1.0;
19/07/2019 19:25:51;116;0;244.56;16;-6.20;-1.03;1.3;18.20;70208;4900.979;-13036.241;208;500;508.9;100;99.9;0;-0.9;29.2;-1.0;
19/07/2019 19:26:11;116;0;268.43;16;-6.21;1.36;1.2;18.20;70225;4900.979;-13036.238;208;500;508.9;100;99.9;0;-0.9;29.3;-1.0;
19/07/2019 19:26:31;116;0;294.80;16;-31.31;6.56;1.4;18.20;70210;4900.982;-13036.234;208;500;508.9;100;99.9;0;-0.9;29.3;-1.0;
19/07/2019 19:26:51;116;0;265.21;16;-5.36;0.55;1.2;18.20;70205;4900.981;-13036.229;208;500;508.9;100;99.9;0;-0.9;29.3;-1.0;
19/07/2019 19:27:11;116;0;272.67;16;-18.68;2.36;1.3;18.20;70210;4900.980;-13036.228;208;500;508.9;100;99.9;0;-0.9;29.3;-1.0;
19/07/2019 19:27:31;116;0;243.47;16;-9.05;5.96;1.2;18.20;70208;4900.984;-13036.223;208;500;508.9;100;99.9;0;-0.9;29.3;-1.0;
19/07/2019 19:27:51;116;0;243.53;16;-7.52;3.54;1.2;18.20;70215;4900.986;-13036.220;208;500;508.9;100;99.9;0;-0.9;29.3;-1.0;
19/07/2019 19:28:11;116;0;247.75;16;-15.69;3.96;1.3;18.20;70215;4900.987;-13036.217;208;500;508.9;100;99.9;0;-0.9;29.2;-1.0;
19/07/2019 19:28:31;116;0;258.95;16;-16.48;6.04;1.3;18.20;70213;4900.983;-13036.214;208;500;508.9;100;99.7;0;-0.9;29.3;-1.0;
19/07/2019 19:28:51;116;0;235.64;16;-7.79;1.14;1.3;18.20;70210;4900.989;-13036.204;208;500;508.9;100;99.9;0;-0.9;29.3;-1.0;
19/07/2019 19:29:29;116;0;251.65;16;-7.43;5.16;1.2;18.20;70203;4900.988;-13036.201;208;500;510.9;100;99.7;0;-0.9;29.3;-1.0;
19/07/2019 19:29:49;116;0;272.69;16;-8.82;-0.38;1.2;18.20;70208;4900.990;-13036.200;208;500;510.9;100;99.9;0;-0.9;29.1;-1.0;
19/07/2019 19:30:09;116;0;261.35;16;-11.27;1.45;1.2;18.20;70210;4900.991;-13036.198;208;500;508.9;100;99.7;0;-0.9;29.2;-1.0;
19/07/2019 19:30:29;116;0;245.13;16;-5.07;2.52;1.2;18.20;70210;4900.990;-13036.195;208;500;508.9;100;99.9;0;-0.9;29.2;-1.0;
19/07/2019 19:30:49;110;0;268.61;16;-8.02;3.62;1.1;18.20;70223;4900.990;-13036.195;208;-200;402.0;100;99.9;0;-0.9;29.2;-1.0;
19/07/2019 19:30:59;110;0;267.04;16;-6.15;6.93;1.3;18.20;70463;4900.990;-13036.195;208;-200;249.5;100;99.9;0;-0.9;29.2;-1.0;
19/07/2019 19:31:09;110;0;258.61;16;-23.34;3.42;1.3;18.20;70668;4900.990;-13036.195;208;-200;83.2;100;100.0;0;-0.9;29.2;-1.0;
19/07/2019 19:31:19;110;0;292.33;16;-49.03;1.30;2.0;18.20;70945;4900.990;-13036.195;208;-200;-101.0;100;100.0;0;-0.9;29.2;-1.0;
19/07/2019 19:31:29;110;0;308.37;16;-66.62;9.61;2.5;18.20;71247;4900.990;-13036.195;208;-200;-200.0;85;84.8;0;-0.9;29.2;-1.0;
19/07/2019 19:31:39;110;0;299.29;16;-45.48;-4.99;2.9;18.20;71402;4900.990;-13036.195;208;-200;-200.0;72;72.0;0;-0.9;29.2;-1.0;
19/07/2019 19:31:49;100;0;296.24;16;-29.76;2.62;3.7;18.20;71389;4900.990;-13036.195;208;-200;-198.0;71;70.9;0;-0.9;29.2;-1.0;
19/07/2019 19:32:09;100;0;291.13;16;-30.24;3.15;5.2;18.20;71380;4900.990;-13036.195;208;-200;-196.0;71;70.9;45;45.1;29.3;0.0;
19/07/2019 19:32:29;100;0;278.83;16;-27.92;25.18;7.3;18.10;71382;4900.990;-13036.195;208;-200;-196.0;71;70.8;38;37.9;29.2;0.0;
19/07/2019 19:32:49;100;0;273.00;16;-28.87;21.22;9.6;18.10;71374;4900.990;-13036.195;208;-200;-196.0;71;70.8;31;31.1;29.2;0.0;
19/07/2019 19:33:09;100;0;259.61;16;-28.22;17.62;11.9;18.00;71376;4900.990;-13036.195;208;-200;-196.0;71;70.8;24;23.9;29.3;0.0;
19/07/2019 19:33:29;100;0;252.80;16;-28.87;13.99;14.3;18.00;71374;4900.990;-13036.195;208;-200;-198.0;71;70.8;23;23.0;29.2;0.0;
19/07/2019 19:33:49;100;0;226.25;16;-26.07;13.75;16.9;17.90;71362;4900.990;-13036.195;208;-200;-196.0;71;70.8;10;9.9;29.3;0.0;
19/07/2019 19:34:09;100;0;211.73;16;-27.88;7.59;18.8;17.90;71313;4900.990;-13036.195;208;-200;-196.0;71;70.8;7;7.2;29.3;0.0;
19/07/2019 19:34:29;118;0;204.01;16;-27.83;6.26;20.7;17.80;71272;4900.990;-13036.195;208;200;-178.2;51;50.7;0;-0.9;29.2;0.0;
19/07/2019 19:34:39;118;0;171.67;16;0.42;3.44;21.4;17.80;71174;4900.990;-13036.195;208;200;-17.8;51;51.0;0;-0.9;29.0;0.0;
19/07/2019 19:34:49;118;0;173.45;16;22.10;3.21;21.1;17.80;70945;4900.990;-13036.195;208;200;138.6;51;51.0;0;-0.9;29.0;-1.0;
19/07/2019 19:34:59;118;0;175.75;16;25.65;3.09;20.0;17.70;70679;4900.990;-13036.195;208;200;205.9;51;51.0;0;-0.9;29.0;-1.0;
19/07/2019 19:35:09;118;0;195.47;16;26.82;2.96;18.4;17.70;70574;4900.990;-13036.195;208;200;205.9;51;51.0;0;-0.9;29.3;-1.0;
19/07/2019 19:35:19;117;0;195.15;16;29.45;3.26;16.4;17.70;70560;4900.990;-13036.195;208;200;207.9;51;51.0;0;-0.9;29.3;-1.0;
19/07/2019 19:35:39;117;0;193.83;16;26.50;3.14;11.8;17.60;70611;4900.990;-13036.195;208;200;207.9;51;51.0;-2;-2.3;29.3;-1.0;
