Timestamp;NavState;SecurityLevel;Heading;Declination;Pitch;Roll;Depth;Temperature;Pa;Lat;Lon;DesiredH;BallastCmd;BallastPos;LinCmd;LinPos;AngCmd;AngPos;Voltage;Altitude;
12/07/2018 16:55:08;105;0;72.88;0;-2.36;-4.89;1.0;16.50;70013;0.000;0.000;-9999;500;499.0;100;99.7;0;0.5;29.3;0.0;
12/07/2018 16:55:18;105;0;72.85;0;-1.81;-1.13;1.0;16.50;70040;0.000;0.000;-9999;500;499.0;100;99.9;0;0.9;29.3;-1.0;
12/07/2018 16:55:28;115;0;73.10;0;-0.65;-3.33;0.9;16.60;70037;0.000;0.000;-9999;500;497.0;100;99.9;0;0.5;29.3;-1.0;
12/07/2018 16:55:38;115;0;67.47;0;-3.05;-3.38;1.0;16.60;70026;0.000;0.000;-9999;500;497.0;100;99.9;0;0.5;29.3;-1.0;
19/07/2019 15:11:05;116;0;69.00;16;0.48;-4.88;1.0;16.60;70048;4900.358;-13038.653;-9999;500;499.0;100;99.7;0;0.5;29.3;-1.0;
19/07/2019 15:11:25;116;0;58.16;16;-2.26;-1.20;0.9;16.60;70038;4900.358;-13038.653;-9999;500;497.0;100;99.7;0;0.5;29.3;-1.0;
19/07/2019 15:11:45;116;0;54.11;16;-1.84;-3.46;1.0;16.60;70048;4900.359;-13038.640;-9999;500;499.0;100;99.9;0;0.5;29.3;-1.0;
19/07/2019 15:12:05;116;0;47.31;16;-3.03;-2.54;1.0;16.60;70031;4900.367;-13038.626;-9999;500;499.0;100;99.9;0;0.5;29.3;-1.0;
19/07/2019 15:12:25;116;0;42.41;16;-2.07;-3.35;1.0;16.60;70034;4900.376;-13038.615;-9999;500;499.0;100;99.9;0;0.5;29.3;-1.0;
19/07/2019 15:12:45;116;0;41.49;16;-2.15;-2.70;0.9;16.60;70047;4900.385;-13038.603;-9999;500;499.0;100;99.7;0;0.5;29.3;-1.0;
19/07/2019 15:13:13;116;0;42.27;16;-2.03;-2.25;1.0;16.60;70040;4900.386;-13038.602;-9999;500;497.0;100;99.9;0;0.5;29.3;-1.0;
19/07/2019 15:13:33;116;0;41.48;16;-2.80;0.10;0.9;16.60;70043;4900.394;-13038.592;30;500;499.0;100;99.7;0;0.5;29.3;-1.0;
19/07/2019 15:13:53;116;0;40.81;16;-2.67;-3.70;1.0;16.70;70041;4900.401;-13038.583;30;500;497.0;100;99.7;0;0.5;29.3;-1.0;
19/07/2019 15:14:13;116;0;45.81;16;-1.19;-8.06;1.1;16.70;70047;4900.404;-13038.581;30;500;497.0;100;99.7;0;0.5;29.3;-1.0;
19/07/2019 15:14:33;116;0;43.50;16;-1.75;-3.10;1.0;16.70;70045;4900.411;-13038.580;30;500;497.0;100;99.7;0;0.5;29.3;-1.0;
19/07/2019 15:14:53;116;0;40.32;16;-1.99;-6.05;0.9;16.70;70047;4900.420;-13038.571;30;500;497.0;100;99.9;0;0.5;29.3;-1.0;
19/07/2019 15:15:13;116;0;42.03;16;-1.02;-2.31;1.0;16.70;70044;4900.428;-13038.567;30;500;497.0;100;99.7;0;0.5;29.3;-1.0;
19/07/2019 15:15:33;116;0;39.23;16;-2.58;-3.55;1.0;16.70;70042;4900.436;-13038.562;30;500;497.0;100;99.7;0;0.5;29.3;-1.0;
19/07/2019 15:15:53;116;0;40.19;16;-1.60;-4.90;1.0;16.70;70047;4900.442;-13038.556;30;500;499.0;100;99.7;0;0.5;29.3;-1.0;
19/07/2019 15:16:13;116;0;41.80;16;-2.07;-5.17;1.0;16.70;70044;4900.446;-13038.551;30;500;499.0;100;99.9;0;0.5;29.3;-1.0;
19/07/2019 15:16:33;116;0;38.18;16;-2.14;-0.97;1.0;16.70;70039;4900.461;-13038.530;30;500;497.0;100;99.7;0;0.5;29.3;-1.0;
19/07/2019 15:17:10;116;0;39.94;16;-2.75;-2.73;1.0;16.80;70051;4900.462;-13038.528;30;500;497.0;100;99.7;0;0.5;29.3;-1.0;
19/07/2019 15:17:30;116;0;40.63;16;-1.36;-3.41;1.0;16.80;70054;4900.470;-13038.524;30;500;497.0;100;99.9;0;0.5;29.3;-1.0;
19/07/2019 15:17:50;116;0;42.38;16;-0.94;-5.05;1.0;16.80;70048;4900.479;-13038.510;30;500;499.0;100;99.7;0;0.5;29.3;-1.0;
19/07/2019 15:18:10;116;0;38.64;16;-0.93;-3.10;1.0;16.80;70045;4900.489;-13038.503;30;500;497.0;100;99.7;0;0.5;29.3;-1.0;
19/07/2019 15:18:39;116;0;34.84;16;-0.34;-4.71;0.9;16.80;70044;4900.497;-13038.494;30;500;497.0;100;99.7;0;0.5;29.3;-1.0;
19/07/2019 15:19:11;116;0;33.45;16;-1.71;-5.16;1.0;16.90;70055;4900.498;-13038.493;30;500;497.0;100;99.9;0;0.5;29.2;-1.0;
19/07/2019 15:19:31;116;0;28.33;16;-2.70;-0.75;1.0;16.90;70049;4900.504;-13038.490;30;500;499.0;100;99.7;0;0.5;29.3;-1.0;
19/07/2019 15:19:51;116;0;28.94;16;-1.98;-2.68;1.0;16.90;70057;4900.509;-13038.486;30;500;497.0;100;99.9;0;0.5;29.3;-1.0;
19/07/2019 15:20:11;116;0;35.55;16;1.19;-4.24;1.0;16.90;70048;4900.515;-13038.482;30;500;497.0;100;99.9;0;0.5;29.3;-1.0;
19/07/2019 15:20:31;116;0;29.98;16;-2.95;-2.26;1.0;16.90;70057;4900.522;-13038.478;30;500;497.0;100;99.7;0;0.5;29.3;-1.0;
19/07/2019 15:20:51;116;0;27.64;16;-2.42;-0.81;1.0;16.90;70049;4900.529;-13038.472;30;500;497.0;100;99.9;0;0.5;29.3;-1.0;
19/07/2019 15:21:11;116;0;35.19;16;-1.09;-5.36;1.0;16.90;70054;4900.539;-13038.470;30;500;497.0;100;99.9;0;0.5;29.3;-1.0;
19/07/2019 15:21:31;116;0;29.45;16;-1.68;-3.82;1.0;16.90;70045;4900.547;-13038.471;30;500;497.0;100;99.7;0;0.5;29.3;-1.0;
19/07/2019 15:21:51;116;0;32.77;16;-1.82;-3.27;1.0;16.90;70056;4900.555;-13038.469;30;500;497.0;100;99.7;0;0.5;29.3;-1.0;
19/07/2019 15:22:11;116;0;26.97;16;-4.17;-1.92;1.0;17.00;70057;4900.559;-13038.471;30;500;497.0;100;99.9;0;0.5;29.3;-1.0;
19/07/2019 15:22:31;116;0;30.71;16;-1.85;-3.78;1.0;17.00;70049;4900.581;-13038.469;30;500;499.0;100;99.7;0;0.5;29.3;-1.0;
19/07/2019 15:23:09;116;0;25.14;16;-1.86;-4.08;1.0;17.00;70050;4900.585;-13038.467;30;500;497.0;100;99.9;0;0.5;29.3;-1.0;
19/07/2019 15:23:29;116;0;25.67;16;-0.93;-3.75;1.0;17.00;70056;4900.589;-13038.465;30;500;497.0;100;99.9;0;0.5;29.3;-1.0;
19/07/2019 15:23:49;116;0;354.03;16;-2.31;-1.22;1.0;17.00;70050;4900.594;-13038.466;30;500;499.0;100;99.7;0;0.5;29.3;-1.0;
19/07/2019 15:24:09;116;0;348.38;16;-3.70;-1.05;1.0;17.00;70048;4900.599;-13038.468;30;500;497.0;100;99.9;0;0.5;29.3;-1.0;
19/07/2019 15:24:29;116;0;343.65;16;-0.64;-2.73;1.0;17.00;70053;4900.605;-13038.467;30;500;495.0;100;99.9;0;0.5;29.3;-1.0;
19/07/2019 15:24:49;116;0;340.75;16;-2.95;-1.59;1.0;17.00;70053;4900.612;-13038.470;30;500;495.0;100;99.7;0;0.5;29.2;-1.0;
19/07/2019 15:25:09;116;0;335.28;16;-0.92;-4.37;0.9;17.00;70063;4900.617;-13038.474;30;500;497.0;100;99.7;0;0.5;29.3;-1.0;
19/07/2019 15:25:29;116;0;324.96;16;0.00;-2.75;1.0;17.00;70053;4900.621;-13038.476;30;500;497.0;100;99.9;0;0.5;29.3;-1.0;
19/07/2019 15:25:49;116;0;330.09;16;-1.20;-3.71;1.0;17.10;70059;4900.624;-13038.478;30;500;497.0;100;99.9;0;0.5;29.3;-1.0;
19/07/2019 15:26:09;116;0;336.56;16;-2.45;-2.18;1.0;17.10;70058;4900.630;-13038.483;30;500;497.0;100;99.7;0;0.5;29.3;-1.0;
19/07/2019 15:26:29;116;0;337.99;16;1.01;-4.30;1.0;17.10;70062;4900.631;-13038.484;30;500;499.0;100;99.7;0;0.5;29.3;-1.0;
19/07/2019 15:26:49;116;0;347.05;16;-0.57;-3.03;0.9;17.10;70063;4900.641;-13038.479;30;500;499.0;100;99.9;0;0.5;29.3;-1.0;
19/07/2019 15:27:42;116;0;357.41;16;-0.82;-3.89;1.0;17.20;70062;4900.641;-13038.479;30;500;497.0;100;99.7;0;0.5;29.3;-1.0;
19/07/2019 15:28:02;116;0;354.85;16;-1.87;-1.01;1.0;17.20;70073;4900.646;-13038.472;30;500;497.0;100;99.9;0;0.5;29.3;-1.0;
19/07/2019 15:28:31;116;0;356.37;16;-2.44;0.47;1.0;17.20;70074;4900.647;-13038.465;30;500;497.0;100;99.9;0;0.5;29.3;-1.0;
19/07/2019 15:28:55;116;0;356.12;16;-1.69;-2.71;1.0;17.20;70076;4900.647;-13038.461;30;500;495.0;100;99.9;0;0.0;29.3;-1.0;
19/07/2019 15:29:20;116;0;342.85;16;-3.13;-2.62;1.0;17.20;70073;4900.646;-13038.458;30;500;497.0;100;99.9;0;0.5;29.3;-1.0;
19/07/2019 15:29:40;116;0;317.02;16;-1.58;-4.20;1.0;17.20;70073;4900.646;-13038.449;30;500;499.0;100;99.9;0;0.5;29.3;-1.0;
19/07/2019 15:30:12;116;0;279.60;16;-2.53;-3.52;1.0;17.20;70088;4900.646;-13038.448;30;500;497.0;100;99.9;0;0.0;29.3;-1.0;
19/07/2019 15:30:32;116;0;278.84;16;-1.97;-3.70;1.0;17.20;70079;4900.647;-13038.442;30;500;497.0;100;99.7;0;0.0;29.3;-1.0;
19/07/2019 15:30:52;116;0;272.41;16;-2.36;-5.49;1.0;17.20;70077;4900.648;-13038.436;30;500;499.0;100;99.7;0;0.5;29.3;-1.0;
19/07/2019 15:31:12;116;0;229.83;16;-0.33;-4.33;1.0;17.30;70089;4900.648;-13038.430;30;500;495.0;100;99.7;0;0.5;29.3;-1.0;
19/07/2019 15:31:32;116;0;239.67;16;-1.61;-3.31;1.0;17.20;70087;4900.648;-13038.424;30;500;497.0;100;99.7;0;0.5;29.3;-1.0;
19/07/2019 15:31:52;116;0;233.02;16;-0.61;-4.04;1.0;17.30;70091;4900.646;-13038.417;30;500;497.0;100;99.7;0;0.5;29.3;-1.0;
19/07/2019 15:32:12;116;0;241.61;16;-1.64;-3.98;1.0;17.30;70099;4900.645;-13038.407;30;500;499.0;100;99.9;0;0.5;29.3;-1.0;
19/07/2019 15:32:32;116;0;148.93;16;-24.05;-10.03;1.0;17.30;70093;4900.646;-13038.400;30;500;497.0;100;99.9;0;0.5;29.3;-1.0;
19/07/2019 15:32:52;116;0;182.04;16;-17.16;-5.82;1.0;17.30;70103;4900.644;-13038.392;30;500;495.0;100;99.9;0;0.5;29.3;-1.0;
19/07/2019 15:33:12;116;0;136.33;16;-22.39;-21.08;1.0;17.30;70093;4900.643;-13038.385;30;500;497.0;100;100.0;0;0.0;29.3;-1.0;
19/07/2019 15:33:32;116;0;67.98;16;-16.41;-18.68;1.0;17.30;70107;4900.643;-13038.378;30;500;497.0;100;100.0;0;-0.5;29.3;-1.0;
19/07/2019 15:33:52;116;0;57.36;16;-1.18;-15.58;1.0;17.40;70103;4900.644;-13038.376;30;500;497.0;100;100.0;0;-0.9;29.3;-1.0;
19/07/2019 15:34:12;116;0;54.75;16;-3.61;-15.25;1.0;17.40;70111;4900.644;-13038.367;30;500;495.0;100;100.0;0;-0.9;29.3;-1.0;
19/07/2019 15:34:32;116;0;54.78;16;-3.16;-15.82;1.0;17.40;70109;4900.641;-13038.359;30;500;495.0;100;100.0;0;-0.9;29.3;-1.0;
19/07/2019 15:34:52;116;0;54.74;16;-3.43;-16.68;1.0;17.40;70113;4900.641;-13038.351;30;500;497.0;100;99.9;0;-0.9;29.3;-1.0;
19/07/2019 15:35:12;116;0;53.15;16;-3.68;-13.54;1.1;17.40;70112;4900.641;-13038.342;30;500;497.0;100;100.0;0;-0.9;29.3;-1.0;
19/07/2019 15:35:32;116;0;54.56;16;-2.72;-14.34;1.0;17.50;70116;4900.643;-13038.337;30;500;497.0;100;99.9;0;-0.9;29.3;-1.0;
19/07/2019 15:35:52;116;0;55.98;16;0.94;-4.51;1.0;17.50;70129;4900.644;-13038.319;30;500;497.0;100;99.6;0;-0.9;29.3;-1.0;
19/07/2019 15:36:30;116;0;79.29;16;-2.64;0.30;0.9;17.50;70119;4900.645;-13038.312;30;500;497.0;100;99.6;0;-0.9;29.3;-1.0;
19/07/2019 15:36:50;116;0;12.64;16;0.17;2.83;1.0;17.50;70131;4900.637;-13038.305;30;500;497.0;100;99.6;0;-0.9;29.3;-1.0;
19/07/2019 15:37:10;116;0;13.49;16;0.00;1.64;1.0;17.50;70135;4900.626;-13038.312;30;500;497.0;100;99.6;0;-0.9;29.3;-1.0;
19/07/2019 15:37:30;116;0;15.48;16;-2.80;-3.33;1.0;17.50;70138;4900.611;-13038.330;30;500;495.0;100;99.6;0;-0.5;29.3;-1.0;
19/07/2019 15:37:50;116;0;331.14;16;-2.88;-0.25;1.0;17.50;70142;4900.580;-13038.355;30;500;497.0;100;99.6;0;-0.9;29.3;-1.0;
19/07/2019 15:38:10;116;0;227.75;16;-4.15;-0.48;1.0;17.50;70152;4900.554;-13038.324;30;500;495.0;100;99.6;0;-0.9;29.3;-1.0;
19/07/2019 15:38:30;116;0;279.95;16;-5.14;2.08;1.0;17.50;70147;4900.517;-13038.258;30;500;497.0;100;99.6;0;-0.9;29.3;-1.0;
19/07/2019 15:38:50;116;0;356.44;16;-0.09;2.66;1.0;17.60;70153;4900.468;-13038.203;30;500;497.0;100;99.6;0;-0.9;29.3;-1.0;
19/07/2019 15:39:10;116;0;44.78;16;2.03;2.45;1.0;17.50;70147;4900.461;-13038.209;30;500;497.0;100;99.6;0;-0.9;29.3;-1.0;
19/07/2019 15:39:30;116;0;46.70;16;-3.54;-1.33;1.0;17.60;70157;4900.458;-13038.222;30;500;497.0;100;99.6;0;-0.9;29.3;-1.0;
19/07/2019 15:39:50;116;0;49.48;16;-3.13;-2.93;1.0;17.60;70164;4900.458;-13038.232;30;500;497.0;100;99.6;0;-0.9;29.3;-1.0;
19/07/2019 15:40:10;116;0;53.82;16;0.37;-8.63;1.0;17.60;70166;4900.457;-13038.232;30;500;497.0;100;99.6;0;-0.5;29.3;-1.0;
19/07/2019 15:40:30;116;0;71.54;16;0.14;-0.40;1.1;17.60;70163;4900.454;-13038.224;30;500;499.0;100;99.6;0;-0.9;29.3;-1.0;
19/07/2019 15:41:08;116;0;67.28;16;3.11;2.62;1.0;17.70;70167;4900.453;-13038.223;30;500;499.0;100;99.6;0;-0.9;29.3;-1.0;
19/07/2019 15:41:28;116;0;72.64;16;-1.36;-1.97;1.0;17.70;70166;4900.452;-13038.222;30;500;497.0;100;99.6;0;-0.9;29.3;-1.0;
19/07/2019 15:41:48;116;0;98.62;16;2.58;2.92;1.0;17.70;70173;4900.452;-13038.219;30;500;499.0;100;99.6;0;-0.9;29.3;-1.0;
19/07/2019 15:42:08;116;0;97.51;16;-1.14;-3.36;1.0;17.80;70179;4900.453;-13038.220;30;500;497.0;100;99.6;0;-0.9;29.3;-1.0;
19/07/2019 15:42:28;116;0;94.38;16;2.27;0.19;1.1;17.80;70181;4900.456;-13038.224;30;500;497.0;100;99.6;0;-0.9;29.3;-1.0;
19/07/2019 15:42:48;116;0;61.57;16;-5.53;-7.78;1.0;17.80;70188;4900.458;-13038.225;30;500;497.0;100;99.6;0;-0.9;29.3;-1.0;
19/07/2019 15:43:08;116;0;71.15;16;-2.86;-4.64;1.1;17.80;70185;4900.458;-13038.228;30;500;497.0;100;99.6;0;-0.5;29.3;-1.0;
19/07/2019 15:43:28;116;0;88.51;16;-1.56;0.45;1.1;17.80;70186;4900.459;-13038.228;30;500;497.0;100;99.6;0;-0.9;29.3;-1.0;
19/07/2019 15:43:48;116;0;69.02;16;-2.01;-2.67;1.0;17.80;70187;4900.460;-13038.234;30;500;497.0;100;99.6;0;-0.9;29.3;-1.0;
19/07/2019 15:44:08;116;0;72.10;16;-0.40;-4.98;1.1;17.80;70184;4900.462;-13038.234;30;500;497.0;100;99.6;0;-0.9;29.3;-1.0;
19/07/2019 15:44:28;116;0;56.98;16;-0.23;-0.57;1.0;17.80;70190;4900.461;-13038.230;30;500;497.0;100;99.6;0;-0.5;29.3;-1.0;
19/07/2019 15:44:48;116;0;55.36;16;1.03;-0.67;1.0;17.90;70199;4900.458;-13038.225;30;500;497.0;100;99.6;0;-0.9;29.3;-1.0;
19/07/2019 15:45:26;116;0;81.37;16;-0.78;-3.74;1.0;17.90;70200;4900.455;-13038.222;30;500;497.0;100;99.6;0;-0.5;29.3;-1.0;
19/07/2019 15:45:46;116;0;81.91;16;0.97;-7.34;1.0;17.90;70202;4900.454;-13038.223;30;500;497.0;100;99.6;0;-0.5;29.3;-1.0;
19/07/2019 15:46:06;116;0;61.33;16;-0.94;-1.23;1.0;18.00;70211;4900.456;-13038.223;30;500;497.0;100;99.6;0;-0.9;29.3;-1.0;
19/07/2019 15:46:26;116;0;55.49;16;0.36;-4.64;1.0;18.00;70209;4900.457;-13038.221;30;500;497.0;100;99.6;0;-0.9;29.3;-1.0;
19/07/2019 15:46:46;116;0;69.55;16;-3.17;-8.80;1.0;18.00;70212;4900.456;-13038.219;30;500;499.0;100;99.6;0;-0.9;29.3;-1.0;
19/07/2019 15:47:06;116;0;68.77;16;-0.50;-2.15;1.0;18.00;70207;4900.455;-13038.215;30;500;499.0;100;99.4;0;-0.5;29.3;-1.0;
19/07/2019 15:47:26;116;0;62.48;16;-2.19;-2.59;1.0;18.00;70206;4900.454;-13038.213;30;500;497.0;100;99.6;0;-0.9;29.3;-1.0;
19/07/2019 15:47:46;116;0;69.95;16;-3.36;-8.16;1.0;18.10;70219;4900.454;-13038.211;30;500;497.0;100;99.6;0;-0.9;29.3;-1.0;
19/07/2019 15:48:06;116;0;62.84;16;-2.59;-7.83;1.1;18.10;70212;4900.452;-13038.208;30;500;497.0;100;99.6;0;-0.9;29.3;-1.0;
19/07/2019 15:48:26;116;0;89.19;16;-0.73;-4.31;1.1;18.10;70209;4900.452;-13038.208;30;500;499.0;100;99.6;0;-0.9;29.3;-1.0;
19/07/2019 15:48:46;116;0;67.22;16;1.71;-1.61;1.0;18.10;70224;4900.451;-13038.209;30;500;497.0;100;99.4;0;-0.5;29.3;-1.0;
19/07/2019 15:49:06;116;0;27.62;16;0.04;0.07;1.1;18.10;70226;4900.453;-13038.182;30;500;499.0;100;99.6;0;-0.9;29.3;-1.0;
19/07/2019 15:49:44;116;0;29.68;16;-1.82;-6.14;1.0;18.10;70225;4900.453;-13038.179;30;500;497.0;100;99.6;0;-0.9;29.3;-1.0;
19/07/2019 15:50:04;116;0;35.93;16;-1.04;-5.61;1.0;18.20;70232;4900.456;-13038.159;30;500;499.0;100;99.6;0;-0.9;29.3;-1.0;
19/07/2019 15:50:24;116;0;50.08;16;1.81;-1.02;1.0;18.20;70230;4900.456;-13038.152;30;500;497.0;100;99.6;0;-0.9;29.3;-1.0;
19/07/2019 15:50:44;116;0;35.69;16;-1.48;-6.15;1.1;18.20;70239;4900.455;-13038.142;30;500;499.0;100;99.6;0;-0.9;29.3;-1.0;
19/07/2019 15:51:04;116;0;47.91;16;0.46;-5.50;1.1;18.30;70240;4900.455;-13038.129;30;500;497.0;100;99.6;0;-0.9;29.3;-1.0;
19/07/2019 15:51:24;116;0;104.13;16;0.61;-5.52;1.0;18.30;70236;4900.446;-13038.107;30;500;499.0;100;99.6;0;-0.5;29.3;-1.0;
19/07/2019 15:51:44;116;0;32.25;16;-1.17;-2.41;1.0;18.30;70237;4900.442;-13038.093;30;500;497.0;100;99.7;0;-0.9;29.3;-1.0;
19/07/2019 15:52:04;116;0;18.70;16;-3.52;-1.75;1.1;18.30;70252;4900.446;-13038.081;30;500;497.0;100;99.7;0;-0.5;29.3;-1.0;
19/07/2019 15:52:24;116;0;25.67;16;-5.79;-8.61;1.1;18.30;70259;4900.447;-13038.068;30;500;499.0;100;99.7;0;-0.9;29.3;-1.0;
19/07/2019 15:52:44;116;0;53.37;16;-0.54;-7.38;1.1;18.40;70251;4900.446;-13038.068;30;500;497.0;100;99.7;0;-0.9;29.3;-1.0;
19/07/2019 15:53:04;116;0;35.82;16;-1.93;-8.18;1.0;18.40;70260;4900.445;-13038.056;30;500;497.0;100;99.7;0;-0.9;29.3;-1.0;
19/07/2019 15:53:24;116;0;63.62;16;-2.46;-8.72;1.1;18.40;70262;4900.445;-13038.037;30;500;497.0;100;99.7;0;-0.9;29.3;-1.0;
19/07/2019 15:53:44;116;0;96.86;16;-2.93;-5.91;1.1;18.40;70269;4900.441;-13038.020;30;500;497.0;100;99.9;0;-0.9;29.3;-1.0;
19/07/2019 15:54:22;116;0;64.37;16;-2.71;-8.26;1.1;18.40;70261;4900.441;-13038.018;30;500;497.0;100;99.7;0;-0.9;29.3;-1.0;
19/07/2019 15:54:42;116;0;60.40;16;-2.32;-1.09;1.1;18.40;70271;4900.438;-13038.015;30;500;497.0;100;99.9;0;-0.9;29.3;-1.0;
19/07/2019 15:55:02;116;0;66.97;16;-3.40;-5.68;1.0;18.50;70269;4900.437;-13038.014;30;500;497.0;100;99.9;0;-0.9;29.3;-1.0;
19/07/2019 15:55:22;116;0;79.03;16;-1.52;-6.28;1.0;18.50;70271;4900.436;-13038.014;30;500;497.0;100;99.9;0;-0.9;29.3;-1.0;
19/07/2019 15:55:42;116;0;61.29;16;-3.94;-6.32;1.0;18.50;70271;4900.434;-13038.006;30;500;497.0;100;99.7;0;-0.9;29.3;-1.0;
19/07/2019 15:56:02;116;0;359.61;16;-0.73;-4.27;1.0;18.50;70273;4900.434;-13037.998;30;500;497.0;100;99.9;0;-0.9;29.2;-1.0;
19/07/2019 15:56:22;116;0;334.33;16;-0.65;-3.94;1.0;18.60;70275;4900.435;-13037.990;30;500;497.0;100;99.7;0;-0.9;29.3;-1.0;
19/07/2019 15:56:42;116;0;53.91;16;-1.94;-8.21;1.0;18.60;70281;4900.429;-13037.991;30;500;497.0;100;99.7;0;-0.9;29.3;-1.0;
19/07/2019 15:57:02;116;0;71.72;16;-2.26;-6.20;1.0;18.60;70284;4900.429;-13037.988;30;500;497.0;100;99.7;0;-0.9;29.3;-1.0;
19/07/2019 15:57:22;116;0;78.93;16;-1.95;-11.87;1.0;18.60;70285;4900.427;-13037.981;30;500;497.0;100;99.9;0;-0.9;29.3;-1.0;
19/07/2019 15:57:42;116;0;54.10;16;-3.53;-8.60;1.0;18.60;70289;4900.426;-13037.970;30;500;499.0;100;99.7;0;-0.9;29.3;-1.0;
19/07/2019 15:58:02;116;0;68.05;16;-2.05;-6.82;1.1;18.60;70288;4900.422;-13037.959;30;500;497.0;100;99.7;0;-0.5;29.3;-1.0;
19/07/2019 15:58:22;116;0;81.71;16;0.21;-6.06;1.0;18.60;70283;4900.421;-13037.952;30;500;497.0;100;99.7;0;-0.9;29.3;-1.0;
19/07/2019 15:59:00;116;0;57.48;16;-2.60;-10.57;1.0;18.70;70295;4900.420;-13037.941;30;500;499.0;100;99.7;0;-0.9;29.3;-1.0;
19/07/2019 15:59:20;116;0;51.81;16;-1.14;-9.76;1.1;18.70;70289;4900.421;-13037.936;30;500;497.0;100;99.7;0;-0.9;29.3;-1.0;
19/07/2019 15:59:40;116;0;32.99;16;-2.85;-9.75;1.0;18.70;70304;4900.418;-13037.926;30;500;499.0;100;99.7;0;-0.9;29.3;-1.0;
19/07/2019 16:00:00;116;0;41.51;16;-1.45;-4.06;1.0;18.70;70294;4900.417;-13037.921;30;500;497.0;100;99.9;0;-0.5;29.3;-1.0;
19/07/2019 16:00:20;116;0;62.40;16;-1.38;-5.38;1.0;18.70;70291;4900.416;-13037.925;30;500;497.0;100;99.9;0;-0.9;29.3;-1.0;
19/07/2019 16:00:40;116;0;59.12;16;-4.00;-9.34;1.0;18.80;70295;4900.415;-13037.912;30;500;497.0;100;99.7;0;-0.9;29.3;-1.0;
19/07/2019 16:01:00;116;0;90.15;16;-1.61;-4.05;1.0;18.80;70298;4900.406;-13037.891;30;500;497.0;100;99.9;0;-0.9;29.3;-1.0;
19/07/2019 16:01:20;116;0;75.47;16;-6.17;-12.37;1.0;18.80;70302;4900.406;-13037.891;30;500;497.0;100;99.7;0;-0.9;29.3;-1.0;
19/07/2019 16:01:40;116;0;77.39;16;-0.42;-6.17;1.0;18.80;70311;4900.409;-13037.895;30;500;499.0;100;99.7;0;-0.9;29.3;-1.0;
19/07/2019 16:02:00;116;0;86.29;16;-1.48;-8.98;1.1;18.80;70310;4900.410;-13037.891;30;500;497.0;100;99.9;0;-0.9;29.3;-1.0;
19/07/2019 16:02:20;116;0;57.21;16;-3.31;-9.76;1.1;18.80;70313;4900.409;-13037.883;30;500;497.0;100;99.9;0;-0.9;29.3;-1.0;
19/07/2019 16:02:40;116;0;4.80;16;-2.15;-13.73;1.0;18.90;70310;4900.407;-13037.872;30;500;497.0;100;99.7;0;-1.4;29.3;-1.0;
19/07/2019 16:03:00;116;0;54.31;16;3.42;-12.97;1.0;18.90;70308;4900.406;-13037.871;30;500;497.0;100;99.7;0;-1.4;29.3;-1.0;
19/07/2019 16:03:20;116;0;42.74;16;9.49;-2.08;1.0;18.90;70317;4900.405;-13037.868;30;500;499.0;100;100.1;0;-1.4;29.3;-1.0;
19/07/2019 16:03:40;116;0;47.86;16;0.46;-3.33;1.0;18.90;70323;4900.405;-13037.865;30;500;497.0;100;100.3;0;-1.4;29.3;-1.0;
19/07/2019 16:04:00;116;0;28.90;16;1.60;-1.05;1.0;18.90;70327;4900.404;-13037.861;30;500;497.0;100;100.3;0;-0.9;29.3;-1.0;
19/07/2019 16:04:20;116;0;39.78;16;-3.31;5.83;1.0;18.90;70327;4900.403;-13037.857;30;500;497.0;100;100.3;0;-0.5;29.3;-1.0;
19/07/2019 16:04:40;116;0;353.08;16;0.42;12.00;1.1;18.90;70320;4900.400;-13037.847;30;500;499.0;100;100.3;0;-0.5;29.3;-1.0;
19/07/2019 16:05:00;116;0;7.30;16;-0.39;8.27;1.0;18.90;70332;4900.401;-13037.842;30;500;499.0;100;100.3;0;-0.5;29.3;-1.0;
19/07/2019 16:05:20;116;0;25.18;16;9.16;13.70;1.1;18.90;70338;4900.401;-13037.840;30;500;497.0;100;100.4;0;-0.5;29.3;-1.0;
19/07/2019 16:05:40;116;0;18.86;16;-37.56;-8.17;1.0;18.90;70343;4900.401;-13037.838;30;500;493.1;100;100.0;0;-0.9;29.3;-1.0;
19/07/2019 16:06:00;116;0;303.99;16;-5.08;1.76;1.0;19.00;70319;4900.399;-13037.832;30;500;495.0;100;99.7;0;-0.5;29.3;-1.0;
19/07/2019 16:06:20;116;0;322.85;16;-6.28;3.30;1.1;19.00;70310;4900.394;-13037.816;30;500;495.0;100;99.7;0;-0.9;29.3;-1.0;
19/07/2019 16:06:44;116;0;283.79;16;-7.34;3.76;1.1;18.90;70281;4900.394;-13037.814;30;500;495.0;100;99.7;0;-0.9;29.4;-1.0;
19/07/2019 16:07:04;116;0;330.37;16;-1.60;2.63;1.1;18.90;70281;4900.389;-13037.801;30;500;495.0;100;99.7;0;-0.5;29.3;-1.0;
19/07/2019 16:07:24;116;0;288.97;16;-11.57;1.04;1.0;18.90;70275;4900.389;-13037.795;30;500;497.0;100;99.7;0;-0.9;29.3;-1.0;
19/07/2019 16:07:44;116;0;307.07;16;-6.56;4.45;1.1;18.90;70270;4900.388;-13037.792;30;500;497.0;100;99.7;0;-0.5;29.2;-1.0;
19/07/2019 16:08:04;116;0;326.13;16;-4.56;0.66;1.1;18.90;70275;4900.387;-13037.786;30;500;497.0;100;99.7;0;-0.5;29.3;-1.0;
19/07/2019 16:08:24;116;0;295.53;16;-15.97;-3.76;1.1;18.90;70273;4900.388;-13037.786;30;500;497.0;100;99.7;0;-0.5;29.3;-1.0;
19/07/2019 16:08:44;116;0;312.86;16;-3.26;3.11;1.1;18.90;70275;4900.388;-13037.786;30;500;497.0;100;99.7;0;-0.5;29.3;-1.0;
19/07/2019 16:09:04;116;0;325.26;16;-5.59;7.52;1.1;19.00;70279;4900.389;-13037.784;30;500;497.0;100;99.7;0;-0.9;29.3;-1.0;
19/07/2019 16:09:24;116;0;318.50;16;-8.59;-0.18;1.1;19.00;70274;4900.389;-13037.781;30;500;497.0;100;99.7;0;-0.5;29.3;-1.0;
19/07/2019 16:09:44;116;0;298.09;16;-9.09;4.80;1.1;19.00;70265;4900.389;-13037.781;30;500;497.0;100;99.7;0;-0.5;29.3;-1.0;
19/07/2019 16:10:04;116;0;290.83;16;-13.22;3.98;1.1;19.00;70277;4900.389;-13037.779;30;500;495.0;100;99.7;0;-0.5;29.3;-1.0;
19/07/2019 16:10:24;116;0;291.48;16;-7.23;2.03;1.1;19.00;70272;4900.391;-13037.778;30;500;497.0;100;99.7;0;-0.5;29.3;-1.0;
19/07/2019 16:10:44;116;0;269.83;16;-4.35;1.07;1.1;19.00;70271;4900.390;-13037.776;30;500;497.0;100;99.7;0;-0.5;29.3;-1.0;
19/07/2019 16:11:04;116;0;288.37;16;-4.94;-1.78;1.1;18.90;70269;4900.389;-13037.770;30;500;497.0;100;99.7;0;-0.5;29.3;-1.0;
19/07/2019 16:11:24;116;0;280.73;16;-9.60;1.03;1.1;18.90;70275;4900.390;-13037.768;30;500;495.0;100;99.7;0;-0.5;29.3;-1.0;
19/07/2019 16:11:45;116;0;306.82;16;-6.37;0.86;1.1;19.00;70263;4900.390;-13037.766;30;500;497.0;100;99.7;0;-0.5;29.3;-1.0;
19/07/2019 16:12:05;116;0;303.87;16;-7.49;11.03;1.0;19.00;70273;4900.390;-13037.766;30;500;497.0;100;99.7;0;-0.5;29.3;-1.0;
19/07/2019 16:12:25;116;0;289.05;16;-6.54;1.61;1.1;19.00;70267;4900.391;-13037.764;30;500;497.0;100;99.7;0;-0.5;29.3;-1.0;
19/07/2019 16:12:45;116;0;307.70;16;-6.59;5.59;1.1;19.00;70272;4900.391;-13037.761;30;500;497.0;100;99.7;0;-0.9;29.3;-1.0;
19/07/2019 16:13:05;116;0;292.85;16;-5.46;6.36;1.1;19.00;70267;4900.392;-13037.758;30;500;493.1;100;99.7;0;-0.5;29.3;-1.0;
19/07/2019 16:13:25;116;0;313.87;16;-9.40;6.58;1.1;19.00;70263;4900.392;-13037.756;30;500;497.0;100;99.7;0;-0.5;29.3;-1.0;
19/07/2019 16:13:45;116;0;311.95;16;-12.46;4.10;1.1;19.00;70276;4900.392;-13037.754;30;500;497.0;100;99.7;0;-0.5;29.3;-1.0;
19/07/2019 16:14:05;116;0;310.36;16;-5.21;6.41;1.1;19.00;70276;4900.392;-13037.751;30;500;497.0;100;99.7;0;-0.5;29.3;-1.0;
19/07/2019 16:14:27;116;0;319.66;16;-7.19;-1.13;1.2;19.00;70266;4900.392;-13037.751;30;500;497.0;100;99.7;0;-0.5;29.3;-1.0;
19/07/2019 16:14:47;116;0;330.55;16;-10.38;2.83;1.1;19.00;70260;4900.391;-13037.740;30;500;495.0;100;99.7;0;-0.5;29.3;-1.0;
19/07/2019 16:15:37;116;0;299.46;16;-17.19;3.55;1.1;19.10;70262;4900.392;-13037.741;30;500;495.0;100;99.7;0;-0.9;29.3;-1.0;
19/07/2019 16:15:57;116;0;316.94;16;-4.83;5.45;1.1;19.10;70264;4900.393;-13037.741;30;500;497.0;100;99.7;0;-0.5;29.3;-1.0;
19/07/2019 16:16:17;116;0;333.56;16;-8.33;5.41;1.1;19.10;70271;4900.394;-13037.737;30;500;497.0;100;99.7;0;-0.5;29.3;-1.0;
19/07/2019 16:16:37;116;0;323.68;16;-8.30;0.70;1.1;19.10;70273;4900.394;-13037.736;30;500;497.0;100;99.7;0;-0.5;29.3;-1.0;
19/07/2019 16:16:57;116;0;331.92;16;-4.86;8.56;1.2;19.10;70267;4900.395;-13037.734;30;500;497.0;100;99.7;0;-0.5;29.3;-1.0;
19/07/2019 16:17:17;116;0;319.60;16;-12.02;2.05;1.1;19.00;70263;4900.395;-13037.732;30;500;497.0;100;99.7;0;-0.5;29.3;-1.0;
19/07/2019 16:17:37;116;0;293.60;16;-8.41;3.92;1.2;19.00;70266;4900.396;-13037.730;30;500;495.0;100;99.7;0;-0.5;29.3;-1.0;
19/07/2019 16:17:57;116;0;308.15;16;-11.44;7.59;1.1;19.00;70259;4900.395;-13037.727;30;500;497.0;100;99.6;0;-0.5;29.3;-1.0;
19/07/2019 16:18:17;116;0;320.13;16;-4.95;0.14;1.1;19.00;70258;4900.395;-13037.726;30;500;497.0;100;99.7;0;-0.5;29.3;-1.0;
19/07/2019 16:18:37;116;0;288.51;16;-9.23;-0.33;1.1;19.00;70252;4900.397;-13037.722;30;500;495.0;100;99.7;0;-0.5;29.3;-1.0;
19/07/2019 16:18:57;116;0;297.68;16;-7.44;1.44;1.1;19.00;70269;4900.397;-13037.722;30;500;497.0;100;99.7;0;-0.5;29.3;-1.0;
19/07/2019 16:19:17;116;0;317.98;16;-5.84;9.24;1.1;19.00;70261;4900.397;-13037.718;30;500;497.0;100;99.7;0;-0.5;29.3;-1.0;
19/07/2019 16:19:40;116;0;301.03;16;-10.45;0.82;1.1;19.00;70259;4900.398;-13037.715;30;500;497.0;100;99.7;0;-0.5;29.3;-1.0;
19/07/2019 16:20:00;116;0;298.87;16;-7.04;-1.55;1.1;19.00;70262;4900.399;-13037.711;30;500;497.0;100;99.7;0;-0.5;29.3;-1.0;
19/07/2019 16:20:30;116;0;309.95;16;-6.04;6.88;1.1;19.00;70267;4900.400;-13037.711;30;500;497.0;100;99.7;0;-0.5;29.3;-1.0;
19/07/2019 16:20:50;116;0;316.59;16;-5.09;2.97;1.1;19.00;70256;4900.402;-13037.705;30;500;497.0;100;99.7;0;-0.5;29.3;-1.0;
19/07/2019 16:21:13;116;0;313.02;16;-10.73;3.34;1.1;19.00;70258;4900.402;-13037.705;30;500;497.0;100;99.7;0;-0.5;29.3;-1.0;
19/07/2019 16:21:33;116;0;316.63;16;-9.13;9.58;1.1;19.00;70258;4900.402;-13037.705;30;500;497.0;100;99.7;0;-0.5;29.3;-1.0;
19/07/2019 16:21:53;116;0;316.05;16;-8.42;2.64;1.1;19.00;70263;4900.404;-13037.702;30;500;497.0;100;99.7;0;-0.5;29.3;-1.0;
19/07/2019 16:22:13;110;0;296.63;16;-4.73;0.92;1.1;19.00;70258;4900.404;-13037.702;30;-200;390.1;100;99.7;0;-0.5;29.3;-1.0;
19/07/2019 16:22:23;110;0;309.79;16;-8.22;-1.09;1.1;19.00;70515;4900.404;-13037.702;30;-200;241.6;100;99.7;0;-0.5;29.3;-1.0;
19/07/2019 16:22:33;110;0;314.39;16;-7.90;1.55;1.1;19.00;70713;4900.404;-13037.702;30;-200;97.0;100;99.7;0;-0.5;29.2;-1.0;
19/07/2019 16:22:43;110;0;323.03;16;-10.75;-1.29;1.1;19.00;70953;4900.404;-13037.702;30;-200;-45.5;100;99.7;0;-0.5;29.3;-1.0;
19/07/2019 16:22:53;110;0;327.41;16;-13.56;5.95;1.1;19.00;71201;4900.404;-13037.702;30;-200;-200.0;93;92.8;0;-0.5;29.2;-1.0;
19/07/2019 16:23:03;110;0;312.09;16;-39.24;2.96;1.7;18.90;71440;4900.404;-13037.702;30;-200;-202.0;71;70.9;0;-0.9;29.3;-1.0;
19/07/2019 16:23:13;100;0;324.50;16;-32.60;7.10;2.6;18.90;71426;4900.404;-13037.702;30;-200;-202.0;71;70.8;0;-0.5;29.3;-1.0;
19/07/2019 16:23:33;100;0;319.06;16;-26.85;2.25;3.2;18.90;71416;4900.404;-13037.702;30;-200;-200.0;71;70.8;0;-0.5;29.3;0.0;
19/07/2019 16:23:53;100;0;324.41;16;-24.75;2.99;3.8;18.90;71401;4900.404;-13037.702;30;-200;-202.0;71;70.6;-28;-28.0;29.3;0.0;
19/07/2019 16:24:13;100;0;335.81;16;-27.56;-10.00;4.2;18.80;71404;4900.404;-13037.702;30;-200;-202.0;71;70.8;-14;-13.5;29.3;0.0;
19/07/2019 16:24:33;100;0;320.00;16;-25.14;-3.60;4.6;18.80;71408;4900.404;-13037.702;30;-200;-202.0;71;70.6;-23;-23.0;29.3;0.0;
19/07/2019 16:24:53;100;0;330.99;16;-23.79;-7.98;5.1;18.70;71412;4900.404;-13037.702;30;-200;-202.0;71;70.8;-14;-13.5;29.3;0.0;
19/07/2019 16:25:13;100;0;329.46;16;-23.79;-1.70;5.6;18.70;71410;4900.404;-13037.702;30;-200;-202.0;71;70.6;-15;-14.9;29.3;0.0;
19/07/2019 16:25:33;100;0;317.05;16;-25.21;-4.35;6.2;18.60;71417;4900.404;-13037.702;30;-200;-202.0;71;70.8;-24;-23.9;29.3;0.0;
19/07/2019 16:25:53;100;0;321.13;16;-28.08;-8.76;6.7;18.60;71405;4900.404;-13037.702;30;-200;-202.0;71;70.8;-21;-21.2;29.3;0.0;
19/07/2019 16:26:13;100;0;319.53;16;-26.24;-6.67;7.1;18.50;71407;4900.404;-13037.702;30;-200;-202.0;71;70.8;-24;-23.9;29.3;0.0;
19/07/2019 16:26:33;100;0;309.99;16;-25.67;-7.07;7.6;18.50;71416;4900.404;-13037.702;30;-200;-200.0;71;70.6;-32;-32.0;29.3;0.0;
19/07/2019 16:26:53;100;0;322.64;16;-24.50;-12.38;8.2;18.40;71407;4900.404;-13037.702;30;-200;-202.0;71;70.8;-22;-22.1;29.3;0.0;
19/07/2019 16:27:13;100;0;322.61;16;-25.20;-6.70;9.0;18.40;71408;4900.404;-13037.702;30;-200;-202.0;71;70.8;-23;-23.0;29.3;0.0;
19/07/2019 16:27:33;100;0;328.87;16;-25.23;-7.77;9.8;18.30;71403;4900.404;-13037.702;30;-200;-202.0;71;70.8;-21;-20.8;29.3;0.0;
19/07/2019 16:27:53;100;0;326.54;16;-24.87;-5.76;10.7;18.30;71405;4900.404;-13037.702;30;-200;-202.0;71;70.8;-23;-23.5;29.3;0.0;
19/07/2019 16:28:13;100;0;334.02;16;-25.36;-8.04;11.6;18.20;71403;4900.404;-13037.702;30;-200;-202.0;71;70.8;-19;-19.0;29.3;0.0;
19/07/2019 16:28:33;100;0;334.25;16;-25.36;-5.04;12.4;18.20;71405;4900.404;-13037.702;30;-200;-202.0;71;70.6;-21;-21.2;29.3;0.0;
19/07/2019 16:28:53;100;0;333.02;16;-25.62;-6.53;13.3;18.20;71405;4900.404;-13037.702;30;-200;-202.0;71;70.8;-22;-22.1;29.2;0.0;
19/07/2019 16:29:13;100;0;345.14;16;-25.30;-7.25;14.4;18.10;71404;4900.404;-13037.702;30;-200;-202.0;71;70.8;-15;-14.4;29.3;0.0;
19/07/2019 16:29:33;100;0;335.41;16;-25.89;-3.45;15.0;18.10;71403;4900.404;-13037.702;30;-200;-202.0;71;70.6;-23;-23.0;29.2;0.0;
19/07/2019 16:29:53;100;0;350.67;16;-27.52;-8.13;15.5;18.00;71403;4900.404;-13037.702;30;-200;-202.0;71;70.8;-14;-14.0;29.3;0.0;
19/07/2019 16:30:13;100;0;344.56;16;-26.50;-2.48;16.1;18.00;71394;4900.404;-13037.702;30;-200;-200.0;71;70.8;-20;-19.9;29.3;0.0;
19/07/2019 16:30:33;100;0;358.70;16;-26.28;-5.31;16.8;17.90;71382;4900.404;-13037.702;30;-200;-200.0;71;70.8;-12;-12.2;29.3;0.0;
19/07/2019 16:30:53;100;0;2.33;16;-27.46;-1.88;17.2;17.90;71374;4900.404;-13037.702;30;-200;-200.0;71;70.8;-13;-13.1;29.3;0.0;
19/07/2019 16:31:13;100;0;5.93;16;-28.14;-3.18;17.8;17.80;71365;4900.404;-13037.702;30;-200;-200.0;71;70.8;-13;-13.5;29.3;0.0;
19/07/2019 16:31:33;100;0;9.82;16;-28.49;-3.11;18.5;17.80;71349;4900.404;-13037.702;30;-200;-200.0;71;70.8;-12;-12.2;29.3;0.0;
19/07/2019 16:31:53;100;0;14.19;16;-28.37;-2.44;19.1;17.80;71340;4900.404;-13037.702;30;-200;-202.0;71;70.8;-12;-11.7;29.3;0.0;
19/07/2019 16:32:13;100;0;22.13;16;-27.21;-2.12;19.6;17.70;71336;4900.404;-13037.702;30;-200;-202.0;71;70.8;-8;-8.1;29.3;0.0;
19/07/2019 16:32:33;100;0;15.98;16;-28.94;2.88;19.8;17.60;71322;4900.404;-13037.702;30;-200;-202.0;71;70.8;-14;-14.0;29.3;0.0;
19/07/2019 16:32:53;100;2048;20.50;16;-29.14;-3.55;19.7;17.60;71305;4900.404;-13037.702;30;-200;-200.0;71;70.8;-14;-14.4;29.3;0.0;
19/07/2019 16:33:13;118;2048;28.28;16;-28.25;-3.08;19.9;17.50;71290;4900.404;-13037.702;30;400;-182.2;20;25.5;0;0.9;29.3;0.0;
19/07/2019 16:33:23;118;2048;49.64;16;25.57;4.18;20.4;17.50;71205;4900.404;-13037.702;30;400;-21.8;20;19.7;0;0.9;29.0;0.0;
19/07/2019 16:33:33;118;2048;26.26;16;63.46;0.18;20.1;17.50;70986;4900.404;-13037.702;30;400;136.6;20;19.7;0;0.9;29.0;-1.0;
19/07/2019 16:33:43;118;2048;8.95;16;58.25;-4.23;18.7;17.50;70732;4900.404;-13037.702;30;400;291.1;20;19.7;0;0.9;29.0;-1.0;
19/07/2019 16:33:53;118;2048;0.12;16;66.64;-4.55;16.0;17.50;70486;4900.404;-13037.702;30;400;407.9;20;19.7;0;0.9;29.0;-1.0;
19/07/2019 16:34:03;118;2048;328.01;16;65.76;1.58;11.6;17.50;70314;4900.404;-13037.702;30;400;407.9;20;19.7;0;0.9;29.3;-1.0;
19/07/2019 16:34:13;118;2048;310.98;16;64.08;-1.01;6.3;17.40;70333;4900.404;-13037.702;30;400;407.9;20;19.7;0;0.9;29.3;-1.0;
