Timestamp;NavState;SecurityLevel;Heading;Declination;Pitch;Roll;Depth;Temperature;Pa;Lat;Lon;DesiredH;BallastCmd;BallastPos;LinCmd;LinPos;AngCmd;AngPos;Voltage;Altitude;
19/07/2019 17:40:14;117;0;149.51;16;26.74;2.88;8.0;17.30;70650;4900.705;-13037.114;206;200;207.9;51;51.1;1;0.9;29.2;-1.0;
19/07/2019 17:40:24;115;0;146.98;16;27.37;5.01;5.8;17.30;70669;4900.705;-13037.114;206;500;219.8;100;96.4;0;-0.9;29.3;-1.0;
19/07/2019 17:40:34;115;0;129.24;16;-1.54;3.51;3.9;17.30;70586;4900.705;-13037.114;206;500;370.3;100;99.9;0;-0.9;29.0;-1.0;
19/07/2019 17:40:44;115;0;115.60;16;-46.85;5.44;4.9;17.30;70369;4900.705;-13037.114;206;500;506.9;100;100.0;0;-0.9;29.0;-1.0;
19/07/2019 17:40:54;115;0;112.66;16;-66.08;-2.09;4.3;17.30;70144;4900.705;-13037.114;206;500;505.0;100;100.0;0;-0.9;29.3;-1.0;
19/07/2019 17:41:04;115;0;144.10;16;-18.96;0.45;1.2;17.30;70154;4900.705;-13037.114;206;500;508.9;100;99.9;0;-0.9;29.3;-1.0;
19/07/2019 17:41:14;116;0;165.29;16;-6.01;4.61;1.1;17.30;70177;4900.705;-13037.114;206;500;510.9;100;99.9;0;-0.9;29.3;-1.0;
19/07/2019 17:41:34;116;0;181.78;16;-8.42;0.20;1.1;17.30;70183;4900.705;-13037.114;206;500;510.9;100;99.9;0;-0.9;29.3;-1.0;
19/07/2019 17:41:54;116;0;233.76;16;-7.50;-1.52;1.2;17.30;70197;4900.705;-13037.114;206;500;510.9;100;99.9;0;-0.9;29.3;-1.0;
19/07/2019 17:42:14;116;0;255.64;16;-15.10;-0.97;1.1;17.30;70185;4900.716;-13037.053;206;500;510.9;100;99.9;0;-0.9;29.1;-1.0;
19/07/2019 17:42:34;116;0;283.31;16;-12.99;5.07;1.1;17.40;70204;4900.718;-13037.054;207;500;510.9;100;99.9;0;-0.9;29.3;-1.0;
19/07/2019 17:42:54;116;0;306.24;16;-12.56;-3.26;1.2;17.40;70205;4900.728;-13037.048;207;500;510.9;100;99.9;0;-0.9;29.3;-1.0;
19/07/2019 17:43:56;116;0;269.10;16;-5.24;4.00;1.1;17.60;70215;4900.729;-13037.049;207;500;510.9;100;99.9;0;-0.9;29.3;-1.0;
19/07/2019 17:44:16;116;0;279.45;16;-7.39;3.09;1.2;17.60;70218;4900.729;-13037.046;207;500;510.9;100;99.9;0;-0.9;29.3;-1.0;
19/07/2019 17:44:36;116;0;262.70;16;-4.48;4.10;1.1;17.70;70218;4900.766;-13037.026;207;500;510.9;100;99.7;0;-0.9;29.3;-1.0;
19/07/2019 17:50:12;116;0;275.03;16;-12.20;1.51;1.1;17.80;70238;4900.766;-13037.026;207;500;510.9;100;99.9;0;-0.9;29.3;-1.0;
19/07/2019 17:50:32;116;0;299.92;16;-7.86;7.21;1.1;17.80;70234;4900.768;-13037.023;207;500;512.9;100;99.9;0;-0.9;29.3;-1.0;
19/07/2019 17:50:52;116;0;291.87;16;-5.04;0.47;1.1;17.90;70242;4900.773;-13037.022;207;500;510.9;100;99.9;0;-0.9;29.3;-1.0;
19/07/2019 17:51:12;116;0;255.64;16;-7.61;-0.74;1.1;17.90;70242;4900.775;-13037.020;207;500;510.9;100;99.9;0;-0.5;29.3;-1.0;
19/07/2019 17:51:32;116;0;264.73;16;-6.89;-2.76;1.2;17.90;70233;4900.777;-13037.019;207;500;510.9;100;99.9;0;-0.9;29.3;-1.0;
19/07/2019 17:51:52;116;0;285.16;16;-6.33;2.32;1.2;17.90;70233;4900.779;-13037.017;207;500;508.9;100;99.9;0;-0.9;29.3;-1.0;
19/07/2019 17:52:12;116;0;302.20;16;-6.00;1.30;1.1;17.90;70240;4900.782;-13037.018;207;500;510.9;100;99.9;0;-0.9;29.3;-1.0;
19/07/2019 17:52:32;116;0;286.82;16;-14.81;5.36;1.1;17.90;70240;4900.786;-13037.015;207;500;510.9;100;99.9;0;-0.9;29.3;-1.0;
19/07/2019 17:52:52;116;0;291.72;16;-10.27;-4.56;1.1;17.90;70238;4900.788;-13037.014;207;500;510.9;100;99.9;0;-0.9;29.3;-1.0;
19/07/2019 17:53:12;116;0;307.12;16;-5.33;3.20;1.1;17.90;70244;4900.795;-13037.010;207;500;510.9;100;99.9;0;-0.9;29.3;-1.0;
19/07/2019 17:53:50;116;0;280.22;16;-5.59;5.09;1.1;17.90;70238;4900.796;-13037.010;207;500;510.9;100;99.9;0;-0.9;29.3;-1.0;
19/07/2019 17:54:10;116;0;302.01;16;-6.23;4.73;1.1;17.90;70238;4900.799;-13037.010;207;500;508.9;100;99.9;0;-0.9;29.3;-1.0;
19/07/2019 17:54:30;116;0;304.99;16;-6.60;6.52;1.1;18.00;70233;4900.806;-13037.004;207;500;510.9;100;99.7;0;-0.9;29.3;-1.0;
19/07/2019 17:55:05;110;0;299.74;16;-13.30;1.24;1.2;18.00;70243;4900.806;-13037.004;207;-200;404.0;100;99.7;0;-0.9;29.3;-1.0;
19/07/2019 17:55:15;110;0;304.50;16;-6.17;-1.32;1.1;18.00;70501;4900.806;-13037.004;207;-200;253.5;100;99.7;0;-0.9;29.2;-1.0;
19/07/2019 17:55:25;110;0;293.00;16;-8.94;2.30;1.1;18.00;70695;4900.806;-13037.004;207;-200;108.9;100;99.7;0;-0.9;29.2;-1.0;
19/07/2019 17:55:35;110;0;312.70;16;-12.38;3.72;1.1;18.00;70937;4900.806;-13037.004;207;-200;-43.6;100;99.9;0;-0.9;29.2;-1.0;
19/07/2019 17:55:45;110;0;303.82;16;-31.79;5.54;1.5;18.00;71193;4900.806;-13037.004;207;-200;-200.0;93;92.8;0;-0.9;29.2;-1.0;
19/07/2019 17:55:55;110;0;306.99;16;-54.22;-3.92;2.7;18.00;71443;4900.806;-13037.004;207;-200;-200.0;72;72.0;0;-0.9;29.3;-1.0;
19/07/2019 17:56:05;100;0;296.48;16;-41.33;3.36;4.5;18.00;71413;4900.806;-13037.004;207;-200;-200.0;71;70.8;0;-0.9;29.3;-1.0;
19/07/2019 17:56:25;100;0;276.18;16;-27.90;4.25;7.0;18.10;71418;4900.806;-13037.004;207;-200;-200.0;71;70.6;45;45.1;29.3;0.0;
19/07/2019 17:56:45;100;0;273.47;16;-27.08;25.09;9.9;18.00;71411;4900.806;-13037.004;207;-200;-198.0;71;70.6;44;43.8;29.3;0.0;
19/07/2019 17:57:05;100;0;262.79;16;-27.70;24.03;12.4;18.00;71417;4900.806;-13037.004;207;-200;-198.0;71;70.6;30;29.8;29.3;0.0;
19/07/2019 17:57:25;100;0;244.25;16;-27.32;17.12;15.1;17.90;71413;4900.806;-13037.004;207;-200;-198.0;71;70.6;19;19.0;29.3;0.0;
19/07/2019 17:57:45;100;0;234.98;16;-28.30;11.90;17.8;17.90;71419;4900.806;-13037.004;207;-200;-198.0;71;70.6;15;14.9;29.3;0.0;
19/07/2019 17:58:05;100;0;210.82;16;-27.56;10.12;20.8;17.90;71396;4900.806;-13037.004;207;-200;-198.0;71;70.6;5;5.0;29.3;0.0;
19/07/2019 17:58:25;100;0;184.90;16;-27.11;5.14;23.5;17.80;71370;4900.806;-13037.004;207;-200;-198.0;71;70.6;5;4.5;29.2;0.0;
19/07/2019 17:58:45;100;0;179.24;16;-27.20;5.17;25.7;17.80;71329;4900.806;-13037.004;207;-200;-198.0;71;70.6;0;-0.5;29.2;0.0;
19/07/2019 17:59:05;100;0;172.86;16;-26.99;2.55;27.8;17.70;71305;4900.806;-13037.004;207;-200;-198.0;71;70.6;0;-0.9;29.3;0.0;
19/07/2019 17:59:25;100;0;168.53;16;-26.58;2.61;29.6;17.60;71271;4900.806;-13037.004;207;-200;-198.0;71;70.6;1;0.9;29.3;0.0;
19/07/2019 17:59:45;118;0;161.56;16;-26.47;3.79;31.4;17.60;71239;4900.806;-13037.004;207;200;-180.2;51;50.8;0;-0.9;29.3;0.0;
19/07/2019 17:59:55;118;0;142.30;16;1.02;3.27;32.1;17.60;71142;4900.806;-13037.004;207;200;-23.8;51;51.1;0;-0.9;29.0;0.0;
19/07/2019 18:00:05;118;0;145.49;16;21.97;3.21;31.7;17.50;70921;4900.806;-13037.004;207;200;130.7;51;51.1;0;-0.9;29.0;-1.0;
19/07/2019 18:00:15;118;0;145.51;16;25.41;2.99;30.5;17.50;70655;4900.806;-13037.004;207;200;207.9;51;51.3;0;-0.9;29.0;-1.0;
19/07/2019 18:00:25;118;0;164.69;16;27.28;2.89;28.8;17.50;70536;4900.806;-13037.004;207;200;207.9;51;51.1;0;-0.9;29.3;-1.0;
19/07/2019 18:00:35;117;0;162.63;16;28.33;2.68;26.7;17.40;70543;4900.806;-13037.004;207;200;205.9;51;51.1;0;-0.9;29.2;-1.0;
19/07/2019 18:00:55;117;0;158.64;16;29.42;3.09;21.6;17.40;70542;4900.806;-13037.004;207;200;207.9;51;51.1;2;1.8;29.3;-1.0;
19/07/2019 18:01:15;117;0;164.59;16;28.25;4.20;15.7;17.30;70597;4900.806;-13037.004;207;200;207.9;51;51.1;-3;-3.6;29.2;-1.0;
19/07/2019 18:01:35;117;0;158.84;16;27.67;1.95;10.9;17.30;70645;4900.806;-13037.004;207;200;209.9;51;51.1;0;0.5;29.2;-1.0;
