Timestamp;NavState;SecurityLevel;Heading;Declination;Pitch;Roll;Depth;Temperature;Pa;Lat;Lon;DeadReckoning;DesiredH;BallastCmd;BallastPos;LinCmd;LinPos;AngCmd;AngPos;Voltage;Altitude;
19/10/2023 22:36:07;117;0;252.44;17;18.61;-4.41;5.7;9.60;72682;5145.309;-12757.981;1;239;450;461.3;21.6;21.3;-10;-10.4;29.2;-1.0;
19/10/2023 22:36:21;115;0;246.09;17;18.38;-6.21;2.9;9.60;72706;5145.308;-12757.986;1;239;500;462.9;100.0;33.9;0;0.5;29.2;-1.0;
19/10/2023 22:36:31;115;0;212.12;17;-14.01;-1.24;1.5;9.60;72615;5145.306;-12757.988;1;239;500;496.8;100.0;100.0;0;0.9;29.2;-1.0;
19/10/2023 22:36:41;115;0;303.63;17;-76.74;-17.54;2.1;9.70;72632;5145.306;-12757.989;1;239;500;498.4;100.0;100.3;0;0.9;29.2;-1.0;
19/10/2023 22:37:01;116;0;344.06;17;-49.17;0.43;0.4;9.70;72638;5145.306;-12757.989;1;239;500;498.4;100.0;100.3;0;0.9;29.2;-1.0;
19/10/2023 22:37:31;116;0;2.16;17;-50.50;-2.74;0.3;9.80;72639;5145.426;-12757.558;0;239;500;498.4;100.0;100.3;0;0.9;29.2;-1.0;
19/10/2023 22:37:51;116;0;345.03;17;-60.12;6.40;0.2;9.80;72641;5145.425;-12757.560;0;239;500;498.4;100.0;100.3;0;0.9;29.2;-1.0;
19/10/2023 22:38:11;116;0;7.65;17;-57.10;-6.53;0.2;9.90;72648;5145.425;-12757.560;0;231;500;498.4;100.0;100.3;0;0.9;29.2;-1.0;
19/10/2023 22:38:31;116;0;346.23;17;-56.65;-6.88;0.2;10.00;72654;5145.421;-12757.558;0;231;500;498.4;100.0;100.5;0;0.9;29.2;-1.0;
19/10/2023 22:39:19;116;0;341.94;17;-56.76;-5.17;0.2;10.30;72668;5145.420;-12757.558;0;231;500;496.8;100.0;100.3;0;0.9;29.2;-1.0;
19/10/2023 22:39:39;110;0;358.44;17;-53.33;-11.11;0.1;10.40;72674;5145.420;-12757.558;0;231;-450;477.4;100.0;100.3;3;3.2;29.2;-1.0;
19/10/2023 22:39:49;110;0;8.08;17;-55.59;-6.77;0.0;10.50;72955;5145.420;-12757.557;1;231;-450;348.4;100.0;100.5;3;3.6;29.2;-1.0;
19/10/2023 22:39:59;110;0;3.64;17;-55.21;-0.68;0.3;10.50;73211;5145.420;-12757.557;1;231;-450;219.4;100.0;100.3;3;3.6;29.1;-1.0;
19/10/2023 22:40:09;110;0;353.74;17;-61.25;-0.53;0.6;10.50;73477;5145.420;-12757.558;1;231;-450;82.3;100.0;100.3;3;3.6;29.2;-1.0;
19/10/2023 22:40:19;110;0;353.36;17;-67.09;-3.57;0.8;10.60;73773;5145.421;-12757.558;1;231;-450;-58.1;97.3;97.3;3;3.6;29.2;-1.0;
19/10/2023 22:40:29;110;0;353.18;17;-67.69;1.25;0.9;10.60;74068;5145.421;-12757.558;1;231;-450;-203.2;83.9;85.3;3;3.6;29.2;-1.0;
19/10/2023 22:40:39;110;0;342.63;17;-60.73;-4.29;2.0;10.70;74401;5145.421;-12757.558;1;231;-450;-366.1;69.0;72.0;3;3.6;29.1;-1.0;
19/10/2023 22:40:49;110;0;338.20;17;-64.21;-4.33;5.0;10.70;74658;5145.423;-12757.559;1;231;-450;-450.0;58.0;57.9;3;3.6;29.1;-1.0;
19/10/2023 22:41:09;100;0;17.59;17;-55.49;-2.02;15.9;10.70;74649;5145.428;-12757.556;1;231;-450;-451.6;48.6;48.7;3;3.6;29.2;-1.0;
19/10/2023 22:41:29;100;0;21.90;17;-46.33;-0.34;26.6;10.80;74655;5145.433;-12757.553;1;231;-450;-451.6;40.1;39.8;70;41.1;29.2;0.0;
19/10/2023 22:41:49;100;0;3.57;17;-32.66;33.05;35.8;10.80;74661;5145.440;-12757.552;1;231;-450;-451.6;35.7;35.7;70;70.4;29.2;0.0;
19/10/2023 22:42:09;100;0;346.66;17;-21.09;32.91;41.8;10.90;74677;5145.448;-12757.555;1;231;-450;-451.6;34.8;34.6;70;70.4;29.2;0.0;
19/10/2023 22:42:29;100;0;331.48;17;-15.42;32.89;45.9;10.90;74672;5145.453;-12757.559;1;231;-450;-451.6;35.6;35.6;70;70.4;29.2;0.0;
19/10/2023 22:42:49;100;0;312.42;17;-15.83;33.07;49.3;10.90;74681;5145.456;-12757.565;1;231;-450;-451.6;36.2;36.3;70;69.9;29.2;0.0;
19/10/2023 22:43:09;100;0;289.02;17;-16.62;33.07;52.7;10.90;74685;5145.458;-12757.573;1;231;-450;-451.6;36.7;36.8;70;70.4;29.2;0.0;
19/10/2023 22:43:29;100;0;260.77;17;-17.93;33.10;56.1;11.00;74696;5145.457;-12757.580;1;231;-450;-450.0;36.7;36.9;36;36.1;29.2;0.0;
19/10/2023 22:43:49;100;0;240.62;17;-21.29;15.55;59.6;11.00;74696;5145.455;-12757.586;1;231;-450;-451.6;35.7;35.4;6;5.9;29.2;0.0;
19/10/2023 22:44:09;100;0;240.18;17;-20.33;0.86;63.2;11.00;74697;5145.453;-12757.593;1;231;-450;-451.6;35.0;34.9;6;5.9;29.2;0.0;
19/10/2023 22:44:29;100;0;243.68;17;-18.23;0.37;66.6;11.00;74686;5145.451;-12757.600;1;231;-450;-451.6;35.0;34.8;9;9.5;29.2;0.0;
19/10/2023 22:44:49;100;0;242.45;17;-18.10;2.95;70.0;11.00;74677;5145.449;-12757.606;1;231;-450;-451.6;35.0;34.8;9;9.5;29.2;0.0;
19/10/2023 22:45:09;100;0;240.56;17;-18.26;2.80;73.3;11.00;74643;5145.446;-12757.613;1;231;-450;-451.6;35.0;34.8;6;5.9;29.2;0.0;
19/10/2023 22:45:29;100;0;241.11;17;-18.08;0.94;76.6;11.00;74628;5145.444;-12757.619;1;231;-450;-450.0;35.0;34.8;6;5.4;29.2;0.0;
19/10/2023 22:45:49;100;0;241.92;17;-18.05;0.93;79.9;11.00;74612;5145.442;-12757.625;1;231;-450;-450.0;35.0;34.8;6;5.4;29.2;0.0;
19/10/2023 22:46:09;100;0;241.48;17;-17.28;0.91;83.3;11.00;74586;5145.440;-12757.632;1;231;-450;-451.6;35.0;34.8;6;5.4;29.2;0.0;
19/10/2023 22:46:29;100;0;237.70;17;-16.87;0.77;86.0;11.00;74550;5145.438;-12757.638;1;231;-450;-451.6;35.3;35.2;4;4.1;29.2;0.0;
19/10/2023 22:46:49;100;0;241.23;17;-17.60;-0.04;89.0;11.00;74540;5145.436;-12757.643;1;231;-450;-451.6;35.3;35.4;7;7.2;29.2;0.0;
19/10/2023 22:47:09;100;0;239.59;17;-18.05;1.95;92.0;11.00;74507;5145.434;-12757.649;1;231;-450;-451.6;35.3;35.6;7;7.2;29.2;0.0;
19/10/2023 22:47:29;100;0;242.44;17;-17.42;1.80;95.3;10.90;74477;5145.431;-12757.656;1;231;-450;-451.6;35.3;35.4;7;7.2;29.2;0.0;
19/10/2023 22:47:49;100;0;245.22;17;-17.14;1.48;98.4;10.90;74461;5145.429;-12757.662;1;231;-450;-451.6;35.3;35.6;11;11.3;29.2;0.0;
19/10/2023 22:48:09;100;0;243.90;17;-16.61;3.80;101.3;10.90;74428;5145.428;-12757.668;1;231;-450;-451.6;35.7;35.7;11;11.7;29.2;0.0;
19/10/2023 22:48:29;100;0;244.51;17;-17.68;3.53;104.3;10.90;74412;5145.426;-12757.674;1;231;-450;-451.6;35.7;35.9;11;11.7;29.2;0.0;
19/10/2023 22:48:49;100;0;237.64;17;-17.20;3.94;107.1;10.80;74388;5145.424;-12757.680;1;231;-450;-450.0;35.7;35.9;5;5.0;29.2;0.0;
19/10/2023 22:49:09;100;0;241.66;17;-16.79;0.12;110.0;10.80;74357;5145.422;-12757.686;1;231;-450;-450.0;36.1;36.5;7;7.2;29.2;0.0;
19/10/2023 22:49:29;100;0;241.89;17;-17.94;1.80;112.9;10.70;74330;5145.420;-12757.691;1;231;-450;-450.0;36.1;36.5;7;7.7;29.2;0.0;
19/10/2023 22:49:49;100;0;236.86;17;-17.46;1.86;115.9;10.70;74323;5145.418;-12757.697;1;231;-450;-451.6;36.1;36.6;4;3.6;29.2;0.0;
19/10/2023 22:50:09;100;0;240.38;17;-17.80;-0.24;119.0;10.70;74296;5145.415;-12757.703;1;231;-450;-451.6;36.1;36.6;6;5.9;29.2;0.0;
19/10/2023 22:50:29;100;0;237.58;17;-17.69;1.38;121.9;10.60;74292;5145.413;-12757.708;1;231;-450;-451.6;36.1;36.5;6;6.8;29.2;0.0;
19/10/2023 22:50:49;100;0;238.63;17;-17.81;1.30;124.7;10.60;74281;5145.411;-12757.714;1;231;-450;-450.0;36.1;36.8;6;6.3;29.2;0.0;
19/10/2023 22:51:09;100;0;241.26;17;-17.45;0.84;127.5;10.60;74268;5145.409;-12757.719;1;231;-450;-451.6;36.1;36.6;6;6.8;29.2;0.0;
19/10/2023 22:51:29;100;0;240.95;17;-16.45;1.38;130.3;10.50;74265;5145.407;-12757.725;1;231;-450;-451.6;36.6;36.6;6;6.8;29.2;0.0;
19/10/2023 22:51:49;100;0;234.47;17;-17.26;1.23;133.1;10.50;74255;5145.405;-12757.730;1;231;-450;-451.6;36.6;36.6;4;4.1;29.2;0.0;
19/10/2023 22:52:09;100;0;234.06;17;-17.32;-0.14;135.9;10.40;74227;5145.403;-12757.736;1;231;-450;-451.6;36.6;36.6;4;3.6;29.2;0.0;
19/10/2023 22:52:29;100;0;231.79;17;-17.44;0.07;138.6;10.40;74232;5145.400;-12757.741;1;231;-450;-451.6;36.6;36.6;4;3.6;29.3;0.0;
19/10/2023 22:52:49;100;0;227.57;17;-17.28;0.08;141.6;10.40;74220;5145.398;-12757.746;1;231;-450;-451.6;36.6;36.6;4;3.6;29.2;0.0;
19/10/2023 22:53:09;100;0;224.26;17;-17.13;-0.04;144.4;10.30;74219;5145.395;-12757.750;1;231;-450;-451.6;36.6;36.6;4;3.6;29.2;0.0;
19/10/2023 22:53:29;100;0;217.62;17;-17.31;-0.01;147.3;10.30;74199;5145.391;-12757.754;1;231;-450;-451.6;36.6;36.6;-3;-3.2;29.2;0.0;
19/10/2023 22:53:49;100;0;219.24;17;-17.10;-3.31;150.3;10.20;74183;5145.388;-12757.758;1;231;-450;-451.6;36.6;36.6;-1;-0.9;29.2;0.0;
19/10/2023 22:54:09;100;0;220.68;17;-16.71;-1.84;153.3;10.20;74196;5145.385;-12757.763;1;231;-450;-451.6;36.9;36.9;-1;0.0;29.2;0.0;
19/10/2023 22:54:29;100;0;220.41;17;-18.30;-1.83;156.2;10.20;74189;5145.382;-12757.767;1;231;-450;-453.2;36.9;37.2;-1;0.0;29.2;0.0;
19/10/2023 22:54:49;100;0;224.76;17;-18.42;-1.66;159.4;10.20;74180;5145.379;-12757.772;1;231;-450;-451.6;36.9;37.2;3;3.6;29.2;0.0;
19/10/2023 22:55:09;100;0;224.65;17;-18.37;0.40;162.5;10.10;74176;5145.376;-12757.777;1;231;-450;-451.6;36.9;37.4;3;3.6;29.2;0.0;
19/10/2023 22:55:29;100;0;219.79;17;-17.95;0.09;165.7;10.10;74155;5145.372;-12757.782;1;231;-450;-451.6;36.9;37.2;-1;-0.9;29.2;0.0;
19/10/2023 22:55:49;100;0;223.24;17;-18.01;-2.25;168.6;10.00;74160;5145.369;-12757.786;1;231;-450;-451.6;36.9;37.2;2;1.8;29.2;0.0;
19/10/2023 22:56:09;100;0;224.10;17;-17.56;-0.69;171.5;10.00;74171;5145.367;-12757.790;1;231;-450;-451.6;36.9;37.2;2;2.3;29.2;0.0;
19/10/2023 22:56:29;100;0;226.27;17;-17.86;-0.69;174.5;10.00;74142;5145.364;-12757.795;1;231;-450;-451.6;36.9;37.2;2;2.3;29.2;0.0;
19/10/2023 22:56:49;100;0;227.21;17;-17.73;-0.66;177.3;10.00;74151;5145.361;-12757.800;1;231;-450;-451.6;36.9;37.4;2;2.3;29.2;0.0;
19/10/2023 22:57:09;100;0;225.20;17;-17.61;-0.56;180.2;9.90;74142;5145.358;-12757.804;1;231;-450;-451.6;36.9;37.2;2;2.3;29.2;0.0;
19/10/2023 22:57:29;100;0;224.42;17;-18.80;-0.48;182.7;9.90;74133;5145.356;-12757.808;1;231;-450;-451.6;36.9;37.2;2;2.3;29.3;0.0;
19/10/2023 22:57:49;100;0;218.84;17;-17.90;-0.41;185.1;9.90;74142;5145.353;-12757.811;1;231;-450;-451.6;36.9;37.2;-2;-1.8;29.2;0.0;
19/10/2023 22:58:09;100;0;222.07;17;-17.49;-1.91;187.6;9.80;74129;5145.351;-12757.815;1;231;-450;-451.6;36.9;37.2;1;1.4;29.2;0.0;
19/10/2023 22:58:29;100;0;220.45;17;-16.46;-1.00;190.3;9.80;74137;5145.348;-12757.819;1;231;-450;-451.6;37.4;37.4;1;1.8;29.2;0.0;
19/10/2023 22:58:49;100;0;213.03;17;-18.23;-0.76;192.6;9.70;74109;5145.345;-12757.822;1;231;-450;-451.6;37.4;37.4;-10;-10.4;29.2;0.0;
19/10/2023 22:59:09;100;0;216.96;17;-18.23;-6.74;195.0;9.70;74116;5145.342;-12757.825;1;231;-450;-451.6;37.4;37.5;-4;-4.1;29.2;0.0;
19/10/2023 22:59:29;100;0;215.91;17;-18.22;-3.37;197.3;9.70;74107;5145.340;-12757.828;1;231;-450;-451.6;37.4;37.4;-6;-5.9;29.2;0.0;
19/10/2023 22:59:49;100;0;218.43;17;-18.24;-4.51;199.7;9.70;74102;5145.337;-12757.832;1;231;-450;-451.6;37.4;37.5;-2;-1.8;29.2;0.0;
19/10/2023 23:00:09;100;0;218.14;17;-18.71;-2.33;201.9;9.60;74110;5145.335;-12757.835;1;231;-450;-451.6;37.4;37.5;-2;-1.4;29.2;0.0;
19/10/2023 23:00:29;100;0;220.12;17;-17.92;-2.35;204.5;9.60;74106;5145.332;-12757.838;1;231;-450;-450.0;37.4;37.5;-2;-1.4;29.2;0.0;
19/10/2023 23:00:49;100;0;224.71;17;-18.11;-2.43;206.9;9.60;74091;5145.330;-12757.842;1;231;-450;-451.6;37.4;37.5;2;1.8;29.2;0.0;
19/10/2023 23:01:09;100;0;226.73;17;-18.09;-0.97;209.2;9.60;74104;5145.328;-12757.846;1;231;-450;-451.6;37.4;37.4;2;2.3;29.2;0.0;
19/10/2023 23:01:29;100;0;223.57;17;-18.20;-0.80;212.0;9.50;74088;5145.325;-12757.850;1;231;-450;-453.2;37.4;37.5;2;2.3;29.3;0.0;
19/10/2023 23:01:49;100;0;224.08;17;-18.01;-0.71;214.9;9.50;74089;5145.322;-12757.855;1;231;-450;-451.6;37.4;37.5;2;2.3;29.2;0.0;
19/10/2023 23:02:09;100;0;223.61;17;-18.29;-0.70;217.8;9.50;74083;5145.319;-12757.859;1;231;-450;-451.6;37.4;37.5;2;2.3;29.2;0.0;
19/10/2023 23:02:29;100;0;224.53;17;-17.88;-0.69;220.9;9.40;74074;5145.316;-12757.864;1;231;-450;-451.6;37.4;37.4;2;2.3;29.2;0.0;
19/10/2023 23:02:49;100;0;224.88;17;-17.85;-0.61;223.7;9.40;74085;5145.313;-12757.868;1;231;-450;-451.6;37.4;37.5;2;2.3;29.2;0.0;
19/10/2023 23:03:09;100;0;225.28;17;-18.31;-0.90;226.6;9.40;74079;5145.311;-12757.873;1;231;-450;-451.6;37.4;37.5;2;2.3;29.2;0.0;
19/10/2023 23:03:29;100;0;226.55;17;-17.93;-0.70;229.5;9.40;74067;5145.308;-12757.878;1;231;-450;-451.6;37.4;37.4;2;1.8;29.2;0.0;
19/10/2023 23:03:49;100;0;227.67;17;-17.94;-0.84;232.3;9.30;74071;5145.305;-12757.882;1;231;-450;-451.6;37.4;37.5;2;2.3;29.2;0.0;
19/10/2023 23:04:09;100;0;228.36;17;-17.84;-0.60;235.2;9.30;74072;5145.303;-12757.887;1;231;-450;-451.6;37.4;37.5;2;2.3;29.2;0.0;
19/10/2023 23:04:29;100;0;230.28;17;-17.53;-0.79;237.8;9.30;74065;5145.300;-12757.891;1;231;-450;-451.6;37.4;37.4;2;2.3;29.2;0.0;
19/10/2023 23:04:49;100;0;231.36;17;-17.69;-0.64;240.5;9.30;74071;5145.298;-12757.896;1;231;-450;-451.6;37.4;37.5;2;2.3;29.2;0.0;
19/10/2023 23:05:09;100;0;232.50;17;-17.96;-0.73;243.0;9.30;74064;5145.296;-12757.900;1;231;-450;-451.6;37.4;37.4;2;2.3;29.2;0.0;
19/10/2023 23:05:29;100;0;233.48;17;-17.91;-0.57;245.6;9.20;74071;5145.294;-12757.905;1;231;-450;-451.6;37.4;37.4;2;2.3;29.2;0.0;
19/10/2023 23:05:49;100;0;236.35;17;-18.05;-0.48;248.0;9.20;74055;5145.292;-12757.910;1;231;-450;-451.6;37.4;37.4;2;2.3;29.2;0.0;
19/10/2023 23:06:09;100;0;238.03;17;-17.86;-0.63;250.6;9.20;74052;5145.290;-12757.914;1;231;-450;-451.6;37.4;37.4;4;4.1;29.2;0.0;
19/10/2023 23:06:29;100;0;236.25;17;-17.86;0.49;253.1;9.20;74053;5145.288;-12757.919;1;231;-450;-451.6;37.4;37.5;4;4.5;29.2;0.0;
19/10/2023 23:06:49;100;0;236.03;17;-17.81;0.37;255.7;9.10;74053;5145.286;-12757.924;1;231;-450;-450.0;37.4;37.5;4;4.5;29.2;0.0;
19/10/2023 23:07:09;100;0;235.85;17;-17.72;0.40;258.3;9.10;74045;5145.284;-12757.929;1;231;-450;-451.6;37.4;37.5;4;4.5;29.2;0.0;
19/10/2023 23:07:29;100;0;239.39;17;-17.96;0.60;260.8;9.10;74046;5145.282;-12757.933;1;231;-450;-450.0;37.4;37.5;4;4.5;29.2;0.0;
19/10/2023 23:07:49;100;0;239.13;17;-18.52;0.17;263.3;9.10;74050;5145.281;-12757.938;1;231;-450;-451.6;37.4;37.4;4;4.5;29.2;0.0;
19/10/2023 23:08:09;100;0;240.38;17;-17.31;0.54;265.9;9.10;74041;5145.279;-12757.943;1;231;-450;-451.6;37.4;37.5;6;5.9;29.2;0.0;
19/10/2023 23:08:29;100;0;239.65;17;-17.92;0.88;268.4;9.00;74034;5145.277;-12757.948;1;231;-450;-451.6;37.4;37.5;6;5.9;29.2;0.0;
19/10/2023 23:08:49;100;0;241.75;17;-17.57;1.11;271.0;9.00;74040;5145.276;-12757.953;1;231;-450;-453.2;37.4;37.5;6;5.9;29.2;0.0;
19/10/2023 23:09:09;100;0;238.22;17;-18.14;1.09;273.8;9.00;74033;5145.274;-12757.958;1;231;-450;-451.6;37.4;37.5;4;4.1;29.2;0.0;
19/10/2023 23:09:29;100;0;243.74;17;-15.18;0.03;276.7;9.00;74034;5145.272;-12757.965;1;231;-450;-451.6;38.3;38.4;9;9.5;29.2;0.0;
19/10/2023 23:09:49;100;0;235.16;17;-18.53;2.56;279.3;9.00;74046;5145.270;-12757.969;1;231;-450;-451.6;38.3;38.4;4;4.1;29.2;0.0;
19/10/2023 23:10:09;100;0;235.86;17;-19.87;-0.03;282.2;8.90;74041;5145.268;-12757.974;1;231;-450;-451.6;38.3;38.6;4;4.1;29.2;0.0;
19/10/2023 23:10:29;100;0;234.11;17;-19.63;0.06;285.1;8.90;74038;5145.265;-12757.979;1;231;-450;-451.6;38.3;38.6;4;4.1;29.2;0.0;
19/10/2023 23:10:49;100;0;234.74;17;-19.21;0.02;288.0;8.90;74027;5145.263;-12757.984;1;231;-450;-451.6;38.3;38.6;4;4.1;29.2;0.0;
19/10/2023 23:11:10;100;0;236.07;17;-21.95;-0.69;290.9;8.90;74041;5145.261;-12757.989;1;231;-450;-451.6;37.1;37.1;4;4.1;29.2;0.0;
19/10/2023 23:11:30;100;0;239.43;17;-16.16;-0.39;293.5;8.90;74028;5145.259;-12757.994;1;231;-450;-451.6;37.6;37.8;4;4.1;29.2;0.0;
19/10/2023 23:11:50;100;0;235.77;17;-19.34;0.03;295.9;8.90;74031;5145.257;-12757.998;1;231;-450;-451.6;37.6;38.0;4;4.1;29.2;0.0;
19/10/2023 23:12:10;100;0;238.60;17;-17.70;-0.02;298.3;8.90;74034;5145.256;-12758.003;1;231;-450;-451.6;37.6;38.0;4;3.6;29.2;0.0;
19/10/2023 23:12:30;100;0;233.41;17;-18.60;0.27;300.6;8.80;74025;5145.254;-12758.007;1;231;-450;-451.6;37.6;38.0;4;4.1;29.2;0.0;
19/10/2023 23:12:50;100;0;231.45;17;-19.85;-0.38;303.0;8.80;74039;5145.252;-12758.011;1;231;-450;-451.6;37.6;38.0;4;4.1;29.2;0.0;
19/10/2023 23:13:10;100;0;229.88;17;-17.88;-0.78;305.5;8.80;74032;5145.250;-12758.015;1;231;-450;-450.0;37.6;38.0;4;4.1;29.2;0.0;
19/10/2023 23:13:30;100;0;231.11;17;-18.20;-0.18;307.8;8.80;74035;5145.248;-12758.019;1;231;-450;-451.6;37.6;38.1;4;4.1;29.2;0.0;
19/10/2023 23:13:50;100;0;233.28;17;-17.57;0.38;310.5;8.80;74023;5145.246;-12758.024;1;231;-450;-451.6;37.6;38.0;4;4.1;29.2;0.0;
19/10/2023 23:14:10;100;0;240.39;17;-17.57;-0.14;313.2;8.70;74026;5145.244;-12758.029;1;231;-450;-451.6;37.6;38.0;6;5.9;29.2;0.0;
19/10/2023 23:14:30;100;0;237.27;17;-19.04;0.70;315.6;8.70;74035;5145.242;-12758.033;1;231;-450;-451.6;37.6;38.1;4;4.1;29.2;0.0;
19/10/2023 23:14:50;100;0;239.21;17;-18.74;-0.04;318.0;8.70;74017;5145.240;-12758.038;1;231;-450;-451.6;37.6;38.0;4;3.2;29.2;0.0;
19/10/2023 23:15:10;100;0;237.88;17;-19.11;-0.24;320.4;8.70;74020;5145.239;-12758.042;1;231;-450;-451.6;37.6;38.1;4;3.6;29.2;0.0;
19/10/2023 23:15:30;100;0;240.57;17;-18.64;-0.42;322.6;8.70;74016;5145.237;-12758.046;1;231;-450;-451.6;37.6;38.1;6;5.9;29.2;0.0;
19/10/2023 23:15:50;100;0;239.89;17;-18.85;1.08;325.1;8.70;74025;5145.236;-12758.051;1;231;-450;-451.6;37.6;38.1;6;6.3;29.2;0.0;
19/10/2023 23:16:10;100;0;237.10;17;-18.18;1.20;327.6;8.70;74020;5145.234;-12758.056;1;231;-450;-451.6;37.6;38.1;4;4.1;29.2;0.0;
19/10/2023 23:16:30;100;0;238.27;17;-19.00;-0.15;330.3;8.60;74005;5145.232;-12758.060;1;231;-450;-451.6;37.6;38.1;4;3.6;29.2;0.0;
19/10/2023 23:16:50;100;0;238.31;17;-18.04;-0.32;332.8;8.60;74025;5145.230;-12758.065;1;231;-450;-451.6;37.6;38.0;4;3.6;29.2;0.0;
19/10/2023 23:17:10;100;0;237.67;17;-18.80;-0.12;335.1;8.60;74019;5145.228;-12758.069;1;231;-450;-450.0;37.6;38.1;4;3.6;29.2;0.0;
19/10/2023 23:17:30;100;0;237.86;17;-19.01;-0.18;337.6;8.60;74006;5145.227;-12758.074;1;231;-450;-451.6;37.6;38.1;4;3.6;29.2;0.0;
19/10/2023 23:17:50;100;0;235.64;17;-18.82;-0.43;340.2;8.60;74005;5145.225;-12758.078;1;231;-450;-451.6;37.6;38.1;4;4.1;29.2;0.0;
19/10/2023 23:18:10;100;0;235.08;17;-18.30;0.02;342.8;8.60;74011;5145.223;-12758.083;1;231;-450;-451.6;37.6;38.1;4;3.6;29.2;0.0;
19/10/2023 23:18:30;100;0;235.05;17;-18.69;-0.17;345.2;8.60;74008;5145.221;-12758.087;1;231;-450;-451.6;37.6;38.1;4;3.6;29.2;0.0;
19/10/2023 23:18:50;100;0;235.49;17;-18.62;-0.20;347.7;8.60;74022;5145.219;-12758.092;1;231;-450;-451.6;37.6;38.1;4;3.6;29.2;0.0;
19/10/2023 23:19:10;100;0;236.46;17;-18.97;-0.16;350.3;8.60;74015;5145.217;-12758.096;1;231;-450;-453.2;37.6;38.1;4;4.1;29.2;0.0;
19/10/2023 23:19:30;100;0;235.78;17;-18.88;-0.32;353.0;8.60;74021;5145.215;-12758.101;1;231;-450;-451.6;37.6;38.1;4;3.6;29.2;0.0;
19/10/2023 23:19:50;100;0;237.72;17;-18.68;-0.37;355.9;8.50;74014;5145.213;-12758.107;1;231;-450;-451.6;37.6;38.1;4;4.1;29.2;0.0;
19/10/2023 23:20:10;100;0;237.89;17;-18.56;-0.23;358.6;8.50;74008;5145.211;-12758.112;1;231;-450;-451.6;37.6;38.1;4;3.6;29.2;0.0;
19/10/2023 23:20:30;100;0;237.40;17;-18.88;-0.35;361.4;8.50;74009;5145.209;-12758.116;1;231;-450;-451.6;37.6;38.1;4;4.1;29.2;0.0;
19/10/2023 23:20:50;100;0;240.04;17;-18.36;-0.22;364.1;8.50;74015;5145.207;-12758.122;1;231;-450;-451.6;37.6;38.1;6;5.9;29.2;0.0;
19/10/2023 23:21:10;100;0;239.25;17;-18.54;0.91;366.8;8.50;74007;5145.205;-12758.127;1;231;-450;-451.6;37.6;38.1;6;6.3;29.2;0.0;
19/10/2023 23:21:30;100;0;240.02;17;-18.45;1.34;369.6;8.50;74002;5145.203;-12758.132;1;231;-450;-451.6;37.6;38.1;6;6.3;29.2;0.0;
19/10/2023 23:21:50;100;0;236.01;17;-17.99;1.44;372.6;8.50;73999;5145.201;-12758.138;1;231;-450;-451.6;37.6;38.1;6;6.3;29.2;43.4;
19/10/2023 23:22:10;100;0;232.82;17;-18.46;1.13;375.4;8.50;74006;5145.199;-12758.142;1;231;-450;-450.0;37.6;38.1;4;3.6;29.2;40.5;
19/10/2023 23:22:30;100;0;234.03;17;-18.73;-0.22;378.2;8.40;74005;5145.197;-12758.147;1;231;-450;-451.6;37.6;38.3;4;3.6;29.2;37.6;
19/10/2023 23:22:50;100;0;236.19;17;-18.62;-0.44;381.4;8.50;74012;5145.194;-12758.153;1;231;-450;-451.6;37.6;38.1;4;3.6;29.2;34.5;
19/10/2023 23:23:10;100;0;237.67;17;-19.03;-0.32;384.5;8.40;74005;5145.192;-12758.159;1;231;-450;-453.2;37.6;38.1;4;3.6;29.2;31.4;
19/10/2023 23:23:30;100;0;240.04;17;-18.42;-0.40;387.9;8.40;74006;5145.190;-12758.165;1;231;-450;-451.6;37.6;38.1;7;7.2;29.2;28.0;
19/10/2023 23:23:43;118;0;240.91;17;-18.22;1.64;390.1;8.40;74012;5145.188;-12758.170;1;231;450;-451.6;50.0;49.9;-4;-4.5;29.2;25.9;
19/10/2023 23:23:53;118;0;168.21;17;-30.94;-3.73;392.1;8.40;73919;5145.187;-12758.169;1;231;450;-396.8;50.0;50.1;-4;-4.1;29.2;-1.0;
19/10/2023 23:24:03;118;0;171.03;17;-38.84;-4.28;394.7;8.40;73663;5145.185;-12758.169;1;231;450;-269.4;50.0;50.2;-4;-4.5;28.5;-1.0;
19/10/2023 23:24:13;118;0;172.23;17;-39.52;-3.88;397.0;8.40;73416;5145.183;-12758.168;1;231;450;-146.8;50.0;50.2;-4;-4.5;28.5;-1.0;
19/10/2023 23:24:23;118;0;172.84;17;-39.87;-4.54;398.4;8.40;73163;5145.183;-12758.168;1;231;450;-21.0;50.0;50.2;-4;-4.1;28.5;-1.0;
19/10/2023 23:24:33;118;0;172.68;17;-39.85;-4.18;398.3;8.40;72901;5145.182;-12758.168;1;231;450;101.6;50.0;50.2;-4;-4.1;28.5;-1.0;
19/10/2023 23:24:43;118;0;163.05;17;-19.01;-3.58;396.9;8.40;72648;5145.181;-12758.167;1;231;450;233.9;50.0;50.2;-4;-4.1;28.5;-1.0;
19/10/2023 23:24:53;118;0;153.77;17;-10.62;-4.57;395.8;8.40;72412;5145.179;-12758.166;1;231;450;361.3;50.0;50.2;-4;-4.1;28.5;-1.0;
19/10/2023 23:25:03;118;0;139.08;17;-13.66;-3.85;394.5;8.40;72169;5145.178;-12758.164;1;231;450;454.8;50.0;50.2;-4;-4.1;28.5;-1.0;
19/10/2023 23:25:13;118;0;118.00;17;-3.44;-4.45;393.6;8.40;72161;5145.178;-12758.163;1;231;450;454.8;50.0;50.2;-4;-4.5;29.2;-1.0;
19/10/2023 23:25:33;117;0;24.14;17;3.05;-4.11;390.8;8.40;72164;5145.179;-12758.162;1;231;450;456.5;42.0;41.9;-4;-4.5;29.2;-1.0;
19/10/2023 23:25:53;117;0;14.27;17;-8.83;-3.27;388.7;8.40;72163;5145.183;-12758.160;1;231;450;456.5;34.0;33.6;-70;-42.4;29.2;-1.0;
19/10/2023 23:26:13;117;0;342.61;17;1.36;-38.19;386.2;8.40;72158;5145.184;-12758.161;1;231;450;456.5;29.0;28.9;-70;-70.4;29.2;-1.0;
19/10/2023 23:26:33;117;0;226.43;17;-15.33;-38.10;383.5;8.40;72161;5145.182;-12758.166;1;231;450;456.5;19.0;18.8;-3;-30.2;29.2;-1.0;
19/10/2023 23:26:53;117;0;163.25;17;1.99;-1.93;381.5;8.40;72153;5145.180;-12758.165;1;231;450;458.1;14.2;14.1;70;36.6;29.2;-1.0;
19/10/2023 23:27:13;117;0;183.41;17;4.70;34.36;378.8;8.40;72161;5145.177;-12758.165;1;231;450;456.5;10.2;10.0;54;53.7;29.2;-1.0;
19/10/2023 23:27:33;117;0;199.23;17;31.03;26.34;375.2;8.40;72155;5145.174;-12758.167;1;231;450;456.5;14.1;14.2;33;32.9;29.2;-1.0;
19/10/2023 23:27:53;117;0;222.77;17;33.69;16.20;367.0;8.40;72156;5145.169;-12758.174;1;231;450;458.1;18.8;18.9;-1;-1.4;29.2;-1.0;
19/10/2023 23:28:13;117;0;228.45;17;30.61;-1.37;357.9;8.40;72150;5145.164;-12758.183;1;231;450;458.1;22.6;22.5;-3;-3.2;29.2;-1.0;
19/10/2023 23:28:33;117;0;230.71;17;25.33;-2.47;350.1;8.30;72138;5145.159;-12758.194;1;231;450;459.7;24.8;24.8;-3;-3.2;29.2;-1.0;
19/10/2023 23:28:53;117;0;233.25;17;20.34;-2.17;344.0;8.30;72129;5145.154;-12758.204;1;231;450;458.1;25.5;25.4;-3;-3.6;29.2;-1.0;
19/10/2023 23:29:13;117;0;235.32;17;17.82;-2.50;339.0;8.30;72135;5145.150;-12758.213;1;231;450;458.1;25.5;25.6;-3;-3.6;29.2;-1.0;
19/10/2023 23:29:33;117;0;238.71;17;16.67;-3.22;334.7;8.30;72140;5145.147;-12758.221;1;231;450;458.1;25.1;25.0;-5;-5.4;29.2;-1.0;
19/10/2023 23:29:53;117;0;237.27;17;18.06;-3.27;330.2;8.30;72125;5145.144;-12758.230;1;231;450;458.1;25.1;24.8;-5;-5.4;29.2;-1.0;
19/10/2023 23:30:13;117;0;239.25;17;17.96;-3.61;325.3;8.30;72125;5145.140;-12758.239;1;231;450;458.1;25.1;24.8;-5;-5.0;29.2;-1.0;
19/10/2023 23:30:33;117;0;239.32;17;18.15;-4.02;320.3;8.30;72131;5145.137;-12758.249;1;231;450;458.1;25.1;24.8;-5;-5.4;29.2;-1.0;
19/10/2023 23:30:53;117;0;234.88;17;18.78;-3.51;315.5;8.30;72133;5145.133;-12758.257;1;231;450;458.1;25.1;24.8;-5;-5.0;29.2;-1.0;
19/10/2023 23:31:13;117;0;230.02;17;18.08;-1.63;310.1;8.30;72109;5145.128;-12758.266;1;231;450;459.7;25.1;24.8;-3;-3.2;29.2;-1.0;
19/10/2023 23:31:33;117;0;235.27;17;18.37;-2.76;305.8;8.30;72124;5145.125;-12758.274;1;231;450;458.1;25.1;24.8;-3;-2.3;29.2;-1.0;
19/10/2023 23:31:53;117;0;236.73;17;18.86;-2.28;300.9;8.30;72118;5145.122;-12758.283;1;231;450;459.7;25.1;24.8;-3;-2.3;29.2;-1.0;
19/10/2023 23:32:13;117;0;236.96;17;18.46;-0.44;296.2;8.30;72110;5145.118;-12758.292;1;231;450;458.1;25.1;24.8;-3;-2.3;29.2;-1.0;
19/10/2023 23:32:33;117;0;238.08;17;20.87;1.53;291.3;8.30;72106;5145.115;-12758.300;1;231;450;459.7;25.9;25.9;-5;-5.4;29.2;-1.0;
19/10/2023 23:32:53;117;0;239.73;17;15.71;-4.11;285.9;8.30;72106;5145.111;-12758.311;1;231;450;458.1;25.2;25.3;-5;-5.0;29.2;-1.0;
19/10/2023 23:33:13;117;0;243.22;17;17.33;-3.22;281.7;8.30;72103;5145.108;-12758.319;1;231;450;458.1;25.2;25.0;-9;-9.0;29.2;-1.0;
19/10/2023 23:33:33;117;0;238.35;17;19.28;-4.89;276.9;8.30;72103;5145.105;-12758.328;1;231;450;459.7;25.2;25.0;-5;-5.0;29.2;-1.0;
19/10/2023 23:33:53;117;0;239.88;17;16.88;-3.92;271.7;8.20;72093;5145.101;-12758.339;1;231;450;458.1;24.9;25.0;-5;-4.5;29.2;-1.0;
19/10/2023 23:34:13;117;0;238.86;17;15.96;-2.21;267.2;8.20;72090;5145.098;-12758.348;1;231;450;459.7;24.3;24.4;-5;-4.5;29.2;-1.0;
19/10/2023 23:34:33;117;0;242.33;17;19.20;-3.68;261.9;8.20;72087;5145.094;-12758.358;1;231;450;458.1;24.3;24.1;-8;-8.6;29.2;-1.0;
19/10/2023 23:34:53;117;0;234.49;17;17.91;-5.14;256.2;8.20;72091;5145.090;-12758.368;1;231;450;458.1;24.3;24.2;-4;-3.6;29.2;-1.0;
19/10/2023 23:35:13;117;0;236.45;17;18.49;-2.85;251.5;8.20;72085;5145.086;-12758.377;1;231;450;458.1;24.3;24.2;-4;-3.2;29.2;-1.0;
19/10/2023 23:35:33;117;0;241.25;17;20.00;-2.18;246.7;8.20;72078;5145.083;-12758.385;1;231;450;458.1;24.3;24.1;-7;-7.2;29.2;-1.0;
19/10/2023 23:35:53;117;0;239.16;17;19.76;-4.71;241.3;8.20;72080;5145.080;-12758.395;1;231;450;458.1;24.3;24.2;-7;-7.2;29.2;-1.0;
19/10/2023 23:36:13;117;0;242.14;17;19.34;-4.64;235.4;8.20;72069;5145.076;-12758.406;1;231;450;459.7;24.3;24.1;-7;-7.2;29.2;-1.0;
19/10/2023 23:36:33;117;0;242.45;17;19.05;-4.32;229.9;8.20;72075;5145.073;-12758.417;1;231;450;459.7;24.3;24.1;-7;-7.2;29.2;-1.0;
19/10/2023 23:36:53;117;0;242.06;17;19.29;-4.46;224.5;8.20;72062;5145.069;-12758.427;1;231;450;459.7;24.3;24.1;-7;-7.2;29.2;-1.0;
19/10/2023 23:37:13;117;0;239.34;17;18.84;-4.48;219.1;8.20;72059;5145.066;-12758.437;1;231;450;458.1;24.3;24.1;-7;-7.2;29.2;-1.0;
19/10/2023 23:37:33;117;0;238.83;17;19.16;-4.49;214.0;8.20;72062;5145.062;-12758.446;1;231;450;458.1;24.3;24.2;-7;-7.2;29.2;-1.0;
19/10/2023 23:37:53;117;0;238.79;17;19.18;-4.40;208.8;8.20;72054;5145.059;-12758.456;1;231;450;458.1;24.3;24.1;-7;-7.2;29.2;-1.0;
19/10/2023 23:38:13;117;0;237.03;17;19.57;-4.42;203.6;8.20;72062;5145.055;-12758.465;1;231;450;458.1;24.3;24.1;-5;-5.0;29.2;-1.0;
19/10/2023 23:38:33;117;0;238.73;17;19.15;-3.12;198.6;8.20;72061;5145.052;-12758.474;1;231;450;458.1;24.3;24.1;-5;-4.1;29.2;-1.0;
19/10/2023 23:38:53;117;0;241.63;17;19.18;-2.21;193.7;8.20;72053;5145.048;-12758.483;1;231;450;458.1;24.3;24.1;-8;-8.1;29.2;-1.0;
19/10/2023 23:39:13;117;0;239.02;17;19.03;-5.09;188.8;8.20;72053;5145.045;-12758.492;1;231;450;458.1;24.3;24.1;-6;-5.9;29.2;-1.0;
19/10/2023 23:39:33;117;0;238.91;17;19.25;-3.34;183.8;8.20;72052;5145.042;-12758.501;1;231;450;458.1;24.3;24.1;-6;-5.0;29.2;-1.0;
19/10/2023 23:39:53;117;0;240.04;17;19.07;-3.33;178.5;8.10;72046;5145.038;-12758.511;1;231;450;458.1;24.3;24.1;-6;-5.4;29.2;-1.0;
19/10/2023 23:40:13;117;0;240.91;17;19.36;-3.26;173.4;8.20;72038;5145.035;-12758.521;1;231;450;459.7;24.3;24.1;-6;-5.4;29.2;-1.0;
19/10/2023 23:40:33;117;0;244.05;17;18.90;-3.04;168.1;8.10;72039;5145.032;-12758.531;1;231;450;458.1;24.3;24.2;-11;-10.8;29.2;-1.0;
19/10/2023 23:40:53;117;0;245.18;17;18.83;-5.85;162.9;8.20;72036;5145.029;-12758.541;1;231;450;458.1;24.3;24.2;-11;-11.3;29.2;-1.0;
19/10/2023 23:41:13;117;0;245.00;17;18.45;-6.38;158.0;8.10;72045;5145.026;-12758.551;1;231;450;458.1;24.3;24.2;-11;-10.8;29.2;-1.0;
19/10/2023 23:41:33;117;0;240.32;17;18.04;-6.50;153.3;8.10;72046;5145.023;-12758.560;1;231;450;458.1;24.3;24.1;-7;-7.2;29.2;-1.0;
19/10/2023 23:41:53;117;0;238.43;17;18.31;-4.13;148.8;8.10;72050;5145.020;-12758.569;1;231;450;458.1;24.3;24.1;-7;-6.8;29.2;-1.0;
19/10/2023 23:42:13;117;0;237.56;17;18.34;-3.99;144.3;8.10;72053;5145.016;-12758.577;1;231;450;459.7;24.3;24.1;-5;-5.0;29.2;-1.0;
19/10/2023 23:42:33;117;0;238.78;17;18.39;-2.67;139.8;8.10;72046;5145.013;-12758.586;1;231;450;458.1;24.3;24.1;-5;-4.5;29.2;-1.0;
19/10/2023 23:42:53;117;0;240.79;17;17.69;-2.90;135.1;8.20;72050;5145.010;-12758.595;1;231;450;458.1;24.3;24.1;-7;-7.2;29.2;-1.0;
19/10/2023 23:43:13;117;0;242.60;17;18.06;-4.72;130.6;8.10;72043;5145.007;-12758.604;1;231;450;459.7;24.3;24.1;-9;-9.5;29.2;-1.0;
19/10/2023 23:43:33;117;0;240.39;17;17.80;-5.58;125.9;8.10;72053;5145.004;-12758.613;1;231;450;459.7;24.3;24.1;-7;-7.2;29.2;-1.0;
19/10/2023 23:43:54;117;0;240.48;17;17.77;-4.38;121.5;8.10;72046;5145.001;-12758.621;1;231;450;458.1;24.3;24.2;-7;-6.8;29.2;-1.0;
19/10/2023 23:44:14;117;0;236.11;17;17.58;-4.30;117.3;8.10;72048;5144.998;-12758.629;1;231;450;458.1;24.3;24.1;-5;-5.0;29.2;-1.0;
19/10/2023 23:44:34;117;0;233.84;17;17.19;-3.19;113.0;8.10;72053;5144.994;-12758.637;1;231;450;458.1;24.3;24.1;-5;-4.5;29.2;-1.0;
19/10/2023 23:44:54;117;0;238.90;17;17.00;-2.94;108.9;8.10;72065;5144.991;-12758.645;1;231;450;459.7;24.3;24.1;-5;-4.5;29.2;-1.0;
19/10/2023 23:45:14;117;0;238.70;17;16.09;-3.21;104.8;8.20;72078;5144.988;-12758.653;1;231;450;459.7;23.7;23.8;-5;-4.5;29.2;-1.0;
19/10/2023 23:45:34;117;0;237.53;17;16.95;-3.07;100.9;8.20;72086;5144.985;-12758.661;1;231;450;459.7;23.4;23.4;-5;-4.5;29.2;-1.0;
19/10/2023 23:45:54;117;0;236.69;17;17.23;-3.26;96.7;8.20;72101;5144.982;-12758.669;1;231;450;459.7;23.4;23.3;-5;-4.5;29.2;-1.0;
19/10/2023 23:46:14;117;0;233.59;17;17.36;-3.21;92.7;8.20;72133;5144.978;-12758.676;1;231;450;459.7;23.4;23.3;-5;-4.5;29.2;-1.0;
19/10/2023 23:46:34;117;0;228.82;17;17.20;-3.39;88.8;8.20;72169;5144.975;-12758.683;1;231;450;459.7;23.4;23.3;-5;-4.5;29.2;-1.0;
19/10/2023 23:46:54;117;0;226.55;17;16.89;-3.21;85.0;8.20;72213;5144.971;-12758.689;1;231;450;459.7;23.1;22.8;-5;-4.5;29.2;-1.0;
19/10/2023 23:47:14;117;0;227.41;17;17.35;-2.88;80.8;8.30;72253;5144.967;-12758.696;1;231;450;459.7;23.1;22.7;-5;-4.5;29.2;-1.0;
19/10/2023 23:47:34;117;0;226.04;17;17.00;-3.33;76.9;8.30;72292;5144.963;-12758.703;1;231;450;459.7;22.8;22.8;-5;-4.5;29.2;-1.0;
19/10/2023 23:47:54;117;0;224.32;17;16.39;-3.13;73.0;8.30;72330;5144.959;-12758.709;1;231;450;459.7;22.3;22.2;-5;-4.5;29.2;-1.0;
19/10/2023 23:48:14;117;0;223.00;17;17.44;-3.32;69.0;8.40;72373;5144.955;-12758.716;1;231;450;459.7;22.3;22.1;-3;-3.2;29.2;-1.0;
19/10/2023 23:48:34;117;0;221.12;17;17.59;-2.20;64.8;8.40;72396;5144.950;-12758.722;1;231;450;456.5;22.3;22.1;-3;-2.7;29.2;-1.0;
19/10/2023 23:48:54;117;0;222.88;17;17.44;-2.24;60.6;8.50;72442;5144.946;-12758.728;1;231;450;459.7;22.3;22.1;-3;-2.7;29.2;-1.0;
19/10/2023 23:49:14;117;0;227.03;17;17.42;-2.46;56.6;8.60;72472;5144.942;-12758.735;1;231;450;459.7;22.3;22.1;-3;-2.7;29.2;-1.0;
19/10/2023 23:49:34;117;0;228.14;17;17.69;-2.35;52.7;8.60;72480;5144.939;-12758.741;1;231;450;459.7;22.3;22.1;-3;-2.7;29.2;-1.0;
19/10/2023 23:49:54;117;0;227.59;17;17.73;-2.28;48.9;8.70;72488;5144.935;-12758.748;1;231;450;459.7;22.3;22.1;-3;-2.7;29.2;-1.0;
19/10/2023 23:50:14;117;0;230.07;17;17.45;-2.28;44.9;8.70;72494;5144.932;-12758.755;1;231;450;459.7;22.3;22.1;-5;-5.0;29.2;-1.0;
19/10/2023 23:50:34;117;0;232.12;17;17.63;-3.65;41.1;8.80;72500;5144.928;-12758.761;1;231;450;459.7;22.3;22.1;-5;-5.4;29.2;-1.0;
19/10/2023 23:50:54;117;0;234.65;17;17.26;-3.60;37.1;8.80;72507;5144.925;-12758.769;1;231;450;459.7;22.3;22.1;-5;-5.4;29.2;-1.0;
19/10/2023 23:51:14;117;0;237.31;17;16.96;-3.63;33.2;8.90;72520;5144.922;-12758.776;1;231;450;459.7;22.0;21.9;-5;-5.4;29.2;-1.0;
19/10/2023 23:51:34;117;0;237.09;17;17.58;-3.64;29.4;8.90;72522;5144.919;-12758.783;1;231;450;459.7;22.0;21.8;-5;-5.4;29.2;-1.0;
19/10/2023 23:51:54;117;0;240.62;17;17.62;-3.44;25.4;9.00;72533;5144.917;-12758.791;1;231;450;459.7;22.0;21.6;-7;-7.2;29.2;-1.0;
19/10/2023 23:52:14;117;0;240.22;17;17.48;-4.68;21.4;9.00;72537;5144.914;-12758.799;1;231;450;459.7;22.0;21.8;-7;-7.7;29.2;-1.0;
19/10/2023 23:52:34;117;0;244.65;17;17.42;-4.74;17.4;9.10;72552;5144.911;-12758.807;1;231;450;459.7;22.0;21.6;-12;-12.2;29.2;-1.0;
19/10/2023 23:52:54;117;0;235.65;17;16.80;-7.54;13.6;9.10;72547;5144.908;-12758.815;1;231;450;461.3;21.6;21.6;-5;-5.0;29.2;-1.0;
19/10/2023 23:53:14;117;0;230.32;17;17.23;-3.40;9.9;9.20;72550;5144.905;-12758.821;1;231;450;461.3;21.6;21.6;-5;-4.1;29.2;-1.0;
