Timestamp;NavState;SecurityLevel;Heading;Declination;Pitch;Roll;Depth;Temperature;Pa;Lat;Lon;DeadReckoning;DesiredH;BallastCmd;BallastPos;LinCmd;LinPos;AngCmd;AngPos;Voltage;Altitude;
19/10/2023 20:23:28;117;256;272.38;17;24.83;-1.58;2.9;15.60;73889;5145.585;-12756.489;1;249;200;212.9;20.5;20.6;-23;-23.5;29.3;-1.0;
19/10/2023 20:23:33;115;256;270.06;17;25.26;-13.96;2.1;15.60;73898;5145.585;-12756.490;1;249;500;214.5;100.0;32.8;0;0.5;29.3;-1.0;
19/10/2023 20:23:43;115;256;243.00;17;-16.47;1.01;1.0;15.50;73814;5145.584;-12756.493;1;249;500;277.4;100.0;100.0;0;0.9;29.3;-1.0;
19/10/2023 20:23:53;115;256;253.64;17;-69.74;-2.16;0.9;15.50;73548;5145.584;-12756.493;1;249;500;400.0;100.0;100.3;0;0.9;29.1;-1.0;
19/10/2023 20:24:03;115;256;228.84;17;-25.06;3.54;-0.2;15.50;73300;5145.583;-12756.494;1;249;500;493.5;100.0;100.3;0;0.9;29.1;-1.0;
19/10/2023 20:24:13;115;256;244.54;17;-66.48;2.31;0.1;15.50;73298;5145.583;-12756.494;1;249;500;496.8;100.0;100.3;0;0.9;29.3;-1.0;
19/10/2023 20:24:33;116;256;255.86;17;-56.89;-1.85;0.1;15.40;73294;5145.618;-12756.469;0;249;500;496.8;100.0;100.3;0;0.9;29.3;-1.0;
19/10/2023 20:25:03;116;256;257.01;17;-55.27;-0.30;-0.0;15.30;73290;5145.619;-12756.467;0;249;500;496.8;100.0;100.5;0;0.9;29.3;-1.0;
19/10/2023 20:25:38;116;256;261.42;17;-51.76;1.36;0.0;15.30;73293;5145.618;-12756.467;0;249;500;496.8;100.0;100.3;0;0.9;29.3;-1.0;
19/10/2023 20:25:58;116;256;267.86;17;-46.85;3.28;-0.0;15.20;73293;5145.620;-12756.465;0;249;500;496.8;100.0;100.3;0;0.9;29.3;-1.0;
19/10/2023 20:26:18;116;256;259.07;17;-48.04;-0.98;0.0;15.20;73289;5145.626;-12756.459;0;249;500;496.8;100.0;100.3;0;0.9;29.3;-1.0;
19/10/2023 20:27:04;116;256;272.00;17;-49.80;-0.90;0.1;15.20;73291;5145.626;-12756.459;0;249;500;498.4;100.0;100.5;0;0.9;29.3;-1.0;
19/10/2023 20:27:24;116;256;268.76;17;-52.94;-2.67;0.0;15.20;73292;5145.627;-12756.457;0;249;500;496.8;100.0;100.3;0;0.9;29.3;-1.0;
19/10/2023 20:27:44;116;256;250.93;17;-52.27;-2.00;0.1;15.30;73292;5145.628;-12756.455;0;249;500;496.8;100.0;100.3;0;0.9;29.3;-1.0;
19/10/2023 20:28:04;116;256;259.35;17;-52.83;-4.24;0.0;15.30;73290;5145.630;-12756.453;0;249;500;498.4;100.0;100.3;0;0.9;29.3;-1.0;
19/10/2023 20:28:24;116;256;260.97;17;-52.07;0.68;0.0;15.30;73286;5145.631;-12756.452;0;249;500;498.4;100.0;100.3;0;0.9;29.3;-1.0;
19/10/2023 20:28:44;116;256;255.08;17;-54.39;-1.79;-0.0;15.30;73274;5145.631;-12756.451;0;249;500;496.8;100.0;100.3;0;0.9;29.3;-1.0;
19/10/2023 20:29:04;116;256;258.78;17;-49.67;-4.33;0.0;15.30;73288;5145.632;-12756.450;0;249;500;498.4;100.0;100.3;0;0.9;29.3;-1.0;
19/10/2023 20:29:24;116;256;252.34;17;-56.26;-2.35;-0.0;15.40;73279;5145.633;-12756.448;0;249;500;496.8;100.0;100.3;0;0.9;29.3;-1.0;
19/10/2023 20:29:44;116;256;256.16;17;-53.99;-3.02;0.0;15.40;73276;5145.633;-12756.447;0;249;500;496.8;100.0;100.3;0;0.9;29.3;-1.0;
19/10/2023 20:30:04;116;256;257.78;17;-51.94;-3.34;-0.1;15.40;73276;5145.634;-12756.445;0;249;500;496.8;100.0;100.3;0;0.9;29.3;-1.0;
19/10/2023 20:30:24;116;256;230.27;17;-49.25;-4.06;0.0;15.40;73276;5145.637;-12756.441;0;249;500;496.8;100.0;100.5;0;0.9;29.3;-1.0;
19/10/2023 20:31:01;116;256;235.97;17;-55.72;-2.75;0.1;15.30;73263;5145.638;-12756.441;0;249;500;496.8;100.0;100.5;0;0.9;29.3;-1.0;
19/10/2023 20:31:21;116;256;242.44;17;-57.83;-3.84;0.0;15.30;73258;5145.638;-12756.440;0;249;500;498.4;100.0;100.3;0;0.9;29.3;-1.0;
19/10/2023 20:31:41;116;256;250.85;17;-56.97;-1.44;0.1;15.30;73267;5145.641;-12756.434;0;249;500;498.4;100.0;100.3;0;0.9;29.3;-1.0;
19/10/2023 20:32:23;116;256;268.51;17;-53.63;-2.02;0.1;15.30;73258;5145.640;-12756.434;0;249;500;498.4;100.0;100.5;0;0.9;29.3;-1.0;
19/10/2023 20:32:43;116;256;258.23;17;-54.41;-2.86;0.1;15.30;73256;5145.641;-12756.433;0;249;500;496.8;100.0;100.3;0;0.9;29.3;-1.0;
19/10/2023 20:33:03;116;256;264.72;17;-54.85;-1.84;-0.0;15.40;73255;5145.642;-12756.432;0;249;500;498.4;100.0;100.3;0;0.9;29.3;-1.0;
19/10/2023 20:33:23;116;256;279.57;17;-50.54;-4.59;0.0;15.40;73265;5145.644;-12756.431;0;249;500;496.8;100.0;100.5;0;0.9;29.3;-1.0;
19/10/2023 20:33:43;116;256;271.02;17;-51.30;0.90;-0.1;15.40;73255;5145.644;-12756.430;0;249;500;496.8;100.0;100.3;0;0.9;29.3;-1.0;
19/10/2023 20:34:03;116;0;255.43;17;-54.75;2.20;0.0;15.40;73253;5145.644;-12756.429;0;249;500;496.8;100.0;100.5;0;0.9;29.3;-1.0;
19/10/2023 20:34:23;116;0;261.40;17;-54.48;-2.77;0.0;15.40;73252;5145.645;-12756.428;0;249;500;496.8;100.0;100.3;0;0.9;29.3;-1.0;
19/10/2023 20:34:43;116;0;260.25;17;-55.30;0.31;0.0;15.40;73251;5145.645;-12756.428;0;249;500;498.4;100.0;100.5;0;0.9;29.3;-1.0;
19/10/2023 20:35:03;116;0;268.60;17;-50.27;3.61;0.0;15.40;73240;5145.646;-12756.426;0;249;500;496.8;100.0;100.3;0;0.9;29.3;-1.0;
19/10/2023 20:35:23;116;0;254.77;17;-53.80;-0.70;-0.0;15.40;73248;5145.646;-12756.426;0;249;500;496.8;100.0;100.3;0;0.9;29.3;-1.0;
19/10/2023 20:35:43;116;0;251.31;17;-51.60;-0.52;0.1;15.40;73254;5145.647;-12756.425;0;249;500;496.8;100.0;100.3;0;0.9;29.3;-1.0;
19/10/2023 20:36:03;116;0;259.41;17;-55.92;1.44;-0.1;15.50;73242;5145.648;-12756.422;0;249;500;496.8;100.0;100.3;0;0.9;29.3;-1.0;
19/10/2023 20:36:23;116;0;255.16;17;-54.19;-1.99;0.0;15.50;73256;5145.648;-12756.420;0;249;500;496.8;100.0;100.3;0;0.9;29.3;-1.0;
19/10/2023 20:36:43;116;0;256.00;17;-54.15;-2.60;0.0;15.50;73245;5145.649;-12756.419;0;249;500;496.8;100.0;100.5;0;0.9;29.3;-1.0;
19/10/2023 20:37:03;116;0;256.70;17;-53.12;0.21;0.0;15.50;73233;5145.650;-12756.418;0;249;500;495.2;100.0;100.3;0;0.9;29.3;-1.0;
19/10/2023 20:37:23;116;0;257.45;17;-50.50;-0.19;0.1;15.50;73244;5145.650;-12756.417;0;249;500;498.4;100.0;100.5;0;0.9;29.3;-1.0;
19/10/2023 20:37:43;116;0;240.67;17;-53.51;-0.12;-0.0;15.50;73237;5145.651;-12756.417;0;249;500;496.8;100.0;100.3;0;0.9;29.3;-1.0;
19/10/2023 20:38:03;116;0;250.43;17;-59.63;-0.92;0.0;15.50;73240;5145.652;-12756.416;0;249;500;496.8;100.0;100.3;0;0.9;29.3;-1.0;
19/10/2023 20:38:23;116;0;249.71;17;-50.02;-3.28;0.0;15.50;73237;5145.653;-12756.415;0;249;500;495.2;100.0;100.5;0;0.9;29.3;-1.0;
19/10/2023 20:38:43;116;0;261.64;17;-46.20;0.14;-0.1;15.50;73240;5145.654;-12756.415;0;249;500;496.8;100.0;100.3;0;0.9;29.2;-1.0;
19/10/2023 20:39:03;116;0;250.18;17;-39.77;-2.09;-0.0;15.50;73229;5145.654;-12756.412;0;249;500;496.8;100.0;100.3;0;0.9;29.3;-1.0;
19/10/2023 20:39:23;116;0;266.13;17;-53.20;-1.79;0.1;15.50;73221;5145.656;-12756.409;0;249;500;496.8;100.0;100.3;0;0.9;29.2;-1.0;
19/10/2023 20:39:43;116;0;271.11;17;-35.97;0.17;-0.1;15.50;73227;5145.658;-12756.402;0;249;500;498.4;100.0;100.3;0;0.9;29.3;-1.0;
19/10/2023 20:40:20;116;0;211.26;17;-53.34;-17.86;-0.3;15.40;73222;5145.659;-12756.398;0;249;500;498.4;100.0;100.3;0;0.9;29.3;-1.0;
19/10/2023 20:40:40;116;0;69.44;17;-71.74;49.34;-0.3;15.40;73218;5145.658;-12756.399;0;249;500;498.4;100.0;100.3;0;0.9;29.3;-1.0;
19/10/2023 20:41:00;116;0;299.74;17;-77.81;-11.48;1.7;15.40;73219;5145.660;-12756.392;0;249;500;496.8;100.0;100.3;0;0.9;29.3;-1.0;
19/10/2023 20:41:20;116;0;286.42;17;-50.37;-4.42;0.1;15.40;73216;5145.658;-12756.393;0;249;500;500.0;100.0;100.3;0;1.4;29.3;-1.0;
19/10/2023 20:41:40;116;0;324.94;17;-55.53;1.54;0.0;15.40;73214;5145.658;-12756.393;0;249;500;500.0;100.0;100.3;0;0.9;29.3;-1.0;
19/10/2023 20:42:00;116;0;301.53;17;-50.99;-2.07;0.1;15.40;73208;5145.659;-12756.392;0;249;500;498.4;100.0;100.5;0;0.9;29.3;-1.0;
19/10/2023 20:42:20;116;0;250.09;17;-54.74;0.58;0.1;15.40;73205;5145.660;-12756.393;0;249;500;500.0;100.0;100.5;0;0.9;29.3;-1.0;
19/10/2023 20:42:40;116;0;241.87;17;-51.93;-2.29;0.0;15.40;73212;5145.661;-12756.392;0;249;500;498.4;100.0;100.3;0;0.9;29.3;-1.0;
19/10/2023 20:43:00;116;0;248.59;17;-53.10;-2.41;0.0;15.40;73213;5145.661;-12756.391;0;249;500;500.0;100.0;100.5;0;1.4;29.3;-1.0;
19/10/2023 20:43:20;116;0;249.02;17;-50.57;0.10;-0.0;15.30;73211;5145.662;-12756.390;0;249;500;500.0;100.0;100.3;0;0.9;29.3;-1.0;
19/10/2023 20:43:40;116;0;244.55;17;-52.92;-2.47;0.1;15.30;73206;5145.662;-12756.391;0;249;500;500.0;100.0;100.5;0;0.9;29.3;-1.0;
19/10/2023 20:44:00;116;0;251.19;17;-52.91;0.27;0.0;15.30;73203;5145.663;-12756.391;0;249;500;500.0;100.0;100.3;0;1.4;29.3;-1.0;
19/10/2023 20:44:20;116;0;252.92;17;-55.17;-3.98;0.0;15.30;73194;5145.664;-12756.391;0;249;500;500.0;100.0;100.5;0;0.9;29.3;-1.0;
19/10/2023 20:44:57;116;0;264.07;17;-61.36;-4.07;-0.1;15.30;73198;5145.664;-12756.391;0;249;500;500.0;100.0;100.5;0;1.4;29.3;-1.0;
19/10/2023 20:45:17;116;0;256.67;17;-58.13;-3.13;0.0;15.30;73194;5145.665;-12756.389;0;249;500;498.4;100.0;100.3;0;1.4;29.3;-1.0;
19/10/2023 20:45:37;116;0;244.15;17;-56.31;0.07;0.0;15.30;73212;5145.666;-12756.388;0;249;500;498.4;100.0;100.5;0;1.4;29.3;-1.0;
19/10/2023 20:46:00;116;0;258.65;17;-54.92;2.26;-0.0;15.20;73190;5145.666;-12756.388;0;249;500;500.0;100.0;100.3;0;1.4;29.3;-1.0;
19/10/2023 20:46:20;116;0;262.17;17;-55.01;-5.24;-0.0;15.20;73190;5145.667;-12756.388;0;249;500;500.0;100.0;100.3;0;0.9;29.3;-1.0;
19/10/2023 20:46:40;116;0;259.86;17;-54.29;-2.12;0.1;15.20;73201;5145.668;-12756.389;0;249;500;498.4;100.0;100.3;0;0.9;29.3;-1.0;
19/10/2023 20:47:00;110;0;264.01;17;-55.94;-1.86;-0.1;15.20;73188;5145.668;-12756.389;0;249;-500;477.4;100.0;100.3;0;0.9;29.3;-1.0;
19/10/2023 20:47:10;110;0;240.87;17;-56.09;2.43;-0.0;15.20;73482;5145.668;-12756.389;1;249;-500;343.5;100.0;100.5;0;1.4;29.2;-1.0;
19/10/2023 20:47:20;110;0;248.20;17;-60.12;-4.36;0.1;15.20;73755;5145.668;-12756.389;1;249;-500;204.8;100.0;100.5;0;1.4;29.2;-1.0;
19/10/2023 20:47:30;110;0;241.30;17;-62.21;-3.33;0.7;15.20;74033;5145.668;-12756.389;1;249;-500;62.9;100.0;100.5;0;0.9;29.2;-1.0;
19/10/2023 20:47:40;110;0;230.68;17;-68.70;-3.98;0.9;15.20;74344;5145.668;-12756.389;1;249;-500;-87.1;95.1;95.2;0;0.9;29.2;-1.0;
19/10/2023 20:47:50;110;0;223.25;17;-70.56;-4.11;0.9;15.10;74673;5145.668;-12756.389;1;249;-500;-238.7;82.5;83.2;0;1.4;29.2;-1.0;
19/10/2023 20:48:00;110;0;215.43;17;-62.55;-3.83;2.3;15.10;75025;5145.667;-12756.390;1;249;-500;-409.7;68.8;70.8;0;1.4;29.2;-1.0;
19/10/2023 20:48:10;110;0;238.95;17;-62.16;0.45;5.9;15.10;75259;5145.666;-12756.393;1;249;-500;-491.9;58.8;58.5;0;0.9;29.2;-1.0;
19/10/2023 20:48:30;100;0;247.37;17;-57.43;-1.23;17.2;15.10;75250;5145.664;-12756.401;1;249;-500;-491.9;48.6;48.7;0;1.4;29.3;-1.0;
19/10/2023 20:48:50;100;0;260.04;17;-50.94;-1.81;31.1;15.00;75250;5145.663;-12756.413;1;249;-500;-491.9;39.4;39.3;4;4.5;29.3;0.0;
19/10/2023 20:49:10;100;0;262.23;17;-38.88;0.40;43.0;15.00;75265;5145.662;-12756.425;1;249;-500;-491.9;33.7;33.6;7;7.7;29.3;0.0;
19/10/2023 20:49:19;118;0;260.74;17;-30.81;1.98;46.9;14.90;75250;5145.661;-12756.430;1;249;350;-491.9;50.0;47.7;0;-0.5;29.3;0.0;
19/10/2023 20:49:29;118;0;214.06;17;-36.94;-1.66;50.4;14.90;75158;5145.659;-12756.433;1;249;350;-443.5;50.0;50.1;0;-0.9;29.3;-1.0;
19/10/2023 20:49:39;118;0;212.59;17;-42.67;-1.70;54.7;14.90;74901;5145.657;-12756.435;1;249;350;-321.0;50.0;50.1;0;-0.5;29.0;-1.0;
19/10/2023 20:49:49;118;0;225.49;17;-43.25;-3.08;58.7;14.90;74630;5145.656;-12756.437;1;249;350;-196.8;50.0;50.1;0;-0.5;29.0;-1.0;
19/10/2023 20:49:59;118;0;232.72;17;-42.08;-1.86;61.7;14.90;74364;5145.655;-12756.440;1;249;350;-74.2;50.0;50.2;0;-0.5;29.0;-1.0;
19/10/2023 20:50:09;118;0;220.18;17;-42.32;-2.37;63.3;14.90;74095;5145.654;-12756.441;1;249;350;48.4;50.0;50.1;0;-0.5;29.0;-1.0;
19/10/2023 20:50:19;118;0;215.38;17;-41.74;-2.58;62.8;14.90;73827;5145.654;-12756.441;1;249;350;171.0;50.0;50.1;0;-0.9;29.0;-1.0;
19/10/2023 20:50:29;118;0;189.13;17;-29.92;-1.92;61.3;14.80;73584;5145.652;-12756.441;1;249;350;298.4;50.0;50.1;0;-0.5;29.0;-1.0;
19/10/2023 20:50:39;118;0;187.56;17;-26.91;-0.85;59.0;14.80;73405;5145.650;-12756.442;1;249;350;354.8;50.0;50.2;0;-0.5;29.0;-1.0;
19/10/2023 20:50:59;117;0;73.40;17;-48.11;2.30;54.6;14.70;73409;5145.651;-12756.438;1;249;350;358.1;42.0;42.1;0;-0.9;29.3;-1.0;
19/10/2023 20:51:19;117;0;29.55;17;-12.97;-2.22;50.8;14.70;73419;5145.656;-12756.433;1;249;350;359.7;32.1;31.9;-70;-38.8;29.3;-1.0;
19/10/2023 20:51:39;117;0;339.71;17;-10.58;-38.44;48.0;14.60;73403;5145.660;-12756.436;1;249;350;361.3;22.9;23.0;-70;-70.4;29.3;-1.0;
19/10/2023 20:51:59;117;0;260.05;17;-7.17;-37.79;45.8;14.60;73412;5145.659;-12756.442;1;249;350;361.3;14.8;14.5;-4;-29.8;29.3;-1.0;
19/10/2023 20:52:19;117;0;248.17;17;26.33;-1.41;43.3;14.50;73429;5145.658;-12756.445;1;249;350;359.7;16.7;16.6;0;0.0;29.3;-1.0;
19/10/2023 20:52:39;117;0;250.27;17;29.10;-0.62;37.6;14.40;73451;5145.656;-12756.453;1;249;350;362.9;19.4;19.4;0;0.5;29.3;-1.0;
19/10/2023 20:52:59;117;0;256.67;17;23.67;-0.73;32.0;14.40;73466;5145.655;-12756.463;1;249;350;362.9;20.5;20.6;-2;-1.8;29.3;-1.0;
19/10/2023 20:53:19;117;0;255.99;17;20.90;-1.70;27.4;14.30;73474;5145.653;-12756.472;1;249;350;361.3;20.5;20.7;-2;-2.3;29.3;-1.0;
19/10/2023 20:53:39;117;0;255.56;17;20.00;-2.02;23.1;14.30;73462;5145.652;-12756.481;1;249;350;362.9;20.5;20.7;-2;-2.3;29.3;-1.0;
19/10/2023 20:53:59;117;0;258.06;17;19.59;-1.98;19.2;14.20;73455;5145.651;-12756.489;1;249;350;361.3;20.5;20.7;-2;-2.3;29.3;-1.0;
19/10/2023 20:54:19;117;0;254.87;17;19.35;-2.10;15.3;14.20;73455;5145.650;-12756.497;1;249;350;362.9;20.5;20.7;-2;-2.3;29.3;-1.0;
19/10/2023 20:54:39;117;0;257.36;17;18.81;-2.38;11.5;14.10;73436;5145.649;-12756.505;1;249;350;362.9;20.2;20.0;-2;-1.8;29.3;-1.0;
