Timestamp;NavState;SecurityLevel;Heading;Declination;Pitch;Roll;Depth;Temperature;Pa;Lat;Lon;DeadReckoning;DesiredH;BallastCmd;BallastPos;LinCmd;LinPos;AngCmd;AngPos;Voltage;Altitude;
19/10/2023 23:53:34;117;0;231.19;17;17.65;-3.38;6.2;9.20;72556;5144.902;-12758.828;1;231;450;461.3;21.6;21.6;-5;-4.5;29.2;-1.0;
19/10/2023 23:53:50;115;0;230.49;17;16.32;-2.93;3.2;9.20;72551;5144.899;-12758.833;1;231;500;461.3;100.0;34.2;0;0.9;29.2;-1.0;
19/10/2023 23:54:00;115;0;198.50;17;-16.40;-1.86;2.0;9.30;72463;5144.897;-12758.834;1;231;500;496.8;100.0;100.0;0;0.9;29.2;-1.0;
19/10/2023 23:54:10;115;0;266.25;17;-83.17;-18.98;2.0;9.30;72470;5144.897;-12758.834;1;231;500;498.4;100.0;100.3;0;0.9;29.2;-1.0;
19/10/2023 23:54:30;116;0;258.13;17;-64.11;-4.84;0.4;9.30;72469;5144.897;-12758.834;1;231;500;496.8;100.0;100.3;0;0.9;29.2;-1.0;
19/10/2023 23:55:00;116;0;274.96;17;-50.78;-0.83;0.2;9.40;72485;5144.884;-12758.553;0;231;500;496.8;100.0;100.3;0;0.9;29.2;-1.0;
19/10/2023 23:55:20;116;0;259.58;17;-58.68;1.12;0.1;9.50;72467;5144.883;-12758.554;0;231;500;496.8;100.0;100.5;0;0.9;29.2;-1.0;
19/10/2023 23:55:40;116;0;257.79;17;-59.08;-3.84;0.2;9.60;72488;5144.881;-12758.555;0;231;500;496.8;100.0;100.3;0;0.9;29.2;-1.0;
19/10/2023 23:56:00;116;0;263.96;17;-55.28;-1.26;0.1;9.60;72483;5144.878;-12758.558;0;259;500;496.8;100.0;100.5;0;0.9;29.2;-1.0;
19/10/2023 23:56:20;116;0;267.46;17;-56.84;1.62;0.1;9.70;72497;5144.870;-12758.565;0;259;500;496.8;100.0;100.3;0;0.9;29.2;-1.0;
19/10/2023 23:57:10;116;0;254.48;17;-58.61;-0.23;0.1;10.00;72514;5144.869;-12758.566;0;259;500;496.8;100.0;100.3;0;0.9;29.2;-1.0;
19/10/2023 23:57:30;110;0;258.71;17;-58.22;-2.72;0.1;10.10;72507;5144.869;-12758.566;0;259;-450;477.4;100.0;100.3;5;5.4;29.2;-1.0;
19/10/2023 23:57:40;110;0;243.27;17;-64.67;-1.11;0.0;10.20;72772;5144.869;-12758.566;1;259;-450;346.8;100.0;100.3;5;5.4;29.1;-1.0;
19/10/2023 23:57:50;110;0;256.26;17;-61.17;-7.04;0.3;10.20;73042;5144.869;-12758.566;1;259;-450;214.5;100.0;100.3;5;5.9;29.1;-1.0;
19/10/2023 23:58:00;110;0;282.81;17;-67.68;-4.62;0.8;10.30;73325;5144.869;-12758.567;1;259;-450;74.2;100.0;100.3;5;5.9;29.1;-1.0;
19/10/2023 23:58:10;110;0;339.91;17;-68.56;-1.20;0.8;10.30;73609;5144.869;-12758.567;1;259;-450;-69.4;96.5;96.5;5;5.9;29.1;-1.0;
19/10/2023 23:58:20;110;0;356.83;17;-66.41;-5.63;1.1;10.30;73913;5144.869;-12758.567;1;259;-450;-212.9;83.2;84.4;5;5.9;29.1;-1.0;
19/10/2023 23:58:30;110;0;9.77;17;-63.68;-2.69;2.4;10.40;74256;5144.870;-12758.567;1;259;-450;-385.5;67.7;71.4;5;5.9;29.1;-1.0;
19/10/2023 23:58:40;110;0;13.19;17;-59.62;-2.75;5.7;10.40;74476;5144.872;-12758.566;1;259;-450;-450.0;58.0;57.9;5;5.9;29.1;-1.0;
19/10/2023 23:59:00;100;0;12.13;17;-52.20;1.52;15.6;10.50;74484;5144.877;-12758.564;1;259;-450;-451.6;48.6;48.7;5;5.9;29.2;-1.0;
19/10/2023 23:59:20;100;0;31.13;17;-46.90;0.04;26.5;10.50;74505;5144.881;-12758.559;1;259;-450;-451.6;40.0;39.8;70;42.9;29.2;0.0;
19/10/2023 23:59:40;100;0;21.11;17;-34.14;32.40;36.0;10.50;74512;5144.888;-12758.555;1;259;-450;-451.6;35.1;35.1;70;69.9;29.2;0.0;
20/10/2023 00:00:00;100;0;3.14;17;-19.82;32.97;42.2;10.60;74518;5144.896;-12758.555;1;259;-450;-451.6;35.1;34.8;70;70.4;29.2;0.0;
20/10/2023 00:00:20;100;0;343.25;17;-15.79;32.84;46.1;10.60;74531;5144.902;-12758.557;1;259;-450;-451.6;35.8;35.9;70;70.4;29.2;0.0;
20/10/2023 00:00:40;100;0;323.70;17;-16.95;32.64;49.6;10.60;74522;5144.906;-12758.562;1;259;-450;-451.6;36.1;36.3;70;70.4;29.2;0.0;
20/10/2023 00:01:00;100;0;303.57;17;-17.86;32.44;53.3;10.60;74535;5144.908;-12758.569;1;259;-450;-451.6;36.1;36.5;58;58.2;29.2;0.0;
20/10/2023 00:01:20;100;0;288.06;17;-19.40;26.24;57.1;10.70;74536;5144.910;-12758.577;1;259;-450;-451.6;36.1;36.6;36;36.1;29.2;0.0;
20/10/2023 00:01:40;100;0;276.37;17;-20.19;15.40;60.9;10.70;74541;5144.910;-12758.585;1;259;-450;-451.6;35.5;35.1;17;17.1;29.2;0.0;
20/10/2023 00:02:00;100;0;268.54;17;-18.99;5.90;64.5;10.70;74548;5144.910;-12758.592;1;259;-450;-451.6;35.5;35.1;7;7.2;29.2;0.0;
20/10/2023 00:02:20;100;0;264.05;17;-18.67;1.73;67.9;10.70;74542;5144.910;-12758.599;1;259;-450;-451.6;35.5;35.1;5;5.0;29.2;0.0;
20/10/2023 00:02:40;100;0;261.08;17;-18.57;0.68;71.1;10.70;74538;5144.909;-12758.606;1;259;-450;-451.6;35.5;35.1;5;5.0;29.2;0.0;
20/10/2023 00:03:00;100;0;258.98;17;-18.78;0.66;74.2;10.70;74522;5144.908;-12758.613;1;259;-450;-451.6;35.5;35.1;5;5.0;29.2;0.0;
20/10/2023 00:03:20;100;0;256.27;17;-18.16;0.35;77.3;10.70;74511;5144.907;-12758.619;1;259;-450;-451.6;35.5;35.1;5;5.0;29.2;0.0;
20/10/2023 00:03:40;100;0;256.15;17;-18.45;0.35;80.4;10.70;74505;5144.906;-12758.626;1;259;-450;-451.6;35.5;35.1;5;4.5;29.2;0.0;
20/10/2023 00:04:00;100;0;254.78;17;-18.27;0.53;83.4;10.70;74479;5144.905;-12758.633;1;259;-450;-451.6;35.5;35.1;5;4.5;29.2;0.0;
20/10/2023 00:04:20;100;0;250.30;17;-18.05;0.43;86.7;10.80;74464;5144.904;-12758.639;1;259;-450;-451.6;35.5;35.1;2;1.8;29.2;0.0;
20/10/2023 00:04:40;100;0;250.85;17;-17.31;-1.13;89.8;10.70;74424;5144.902;-12758.646;1;259;-450;-453.2;35.5;35.2;2;1.4;29.2;0.0;
20/10/2023 00:05:00;100;0;253.45;17;-17.42;-1.25;92.8;10.70;74403;5144.901;-12758.653;1;259;-450;-451.6;35.5;35.1;4;4.1;29.2;0.0;
20/10/2023 00:05:20;100;0;261.17;17;-16.71;0.25;95.9;10.70;74369;5144.900;-12758.660;1;259;-450;-451.6;35.8;35.9;4;4.5;29.2;0.0;
20/10/2023 00:05:40;100;0;263.21;17;-18.17;0.19;99.1;10.70;74334;5144.900;-12758.667;1;259;-450;-451.6;35.8;36.2;4;4.5;29.2;0.0;
20/10/2023 00:06:00;100;0;267.04;17;-17.42;0.19;102.2;10.60;74287;5144.900;-12758.674;1;259;-450;-451.6;35.8;36.0;6;5.9;29.2;0.0;
20/10/2023 00:06:20;100;0;269.84;17;-17.81;1.21;105.1;10.60;74263;5144.900;-12758.680;1;259;-450;-451.6;35.8;36.0;8;8.1;29.2;0.0;
20/10/2023 00:06:40;100;0;269.75;17;-17.95;2.31;107.9;10.60;74239;5144.900;-12758.687;1;259;-450;-451.6;35.8;36.2;8;8.6;29.2;0.0;
20/10/2023 00:07:00;100;0;264.72;17;-17.24;2.28;110.9;10.60;74215;5144.899;-12758.693;1;259;-450;-451.6;35.8;36.0;5;4.5;29.2;0.0;
20/10/2023 00:07:20;100;0;261.94;17;-17.20;0.31;113.8;10.50;74186;5144.899;-12758.700;1;259;-450;-451.6;35.8;36.3;5;4.5;29.2;0.0;
20/10/2023 00:07:40;100;0;258.07;17;-17.03;0.38;116.7;10.50;74173;5144.898;-12758.707;1;259;-450;-451.6;35.8;36.2;5;4.5;29.2;0.0;
20/10/2023 00:08:00;100;0;254.96;17;-16.87;0.30;119.5;10.40;74158;5144.897;-12758.713;1;259;-450;-451.6;36.2;36.2;5;4.5;29.2;0.0;
20/10/2023 00:08:20;100;0;255.39;17;-16.83;0.07;122.3;10.40;74168;5144.896;-12758.719;1;259;-450;-451.6;36.5;36.5;5;4.5;29.2;0.0;
20/10/2023 00:08:40;100;0;256.27;17;-17.77;0.15;124.9;10.30;74134;5144.895;-12758.725;1;259;-450;-451.6;36.5;36.6;5;4.5;29.2;0.0;
20/10/2023 00:09:00;100;0;254.50;17;-17.65;0.01;127.6;10.30;74132;5144.894;-12758.730;1;259;-450;-451.6;36.5;36.8;5;4.5;29.2;0.0;
20/10/2023 00:09:20;100;0;251.61;17;-17.87;0.40;130.2;10.30;74124;5144.893;-12758.736;1;259;-450;-453.2;36.5;36.6;3;3.2;29.2;0.0;
20/10/2023 00:09:40;100;0;247.32;17;-17.68;-0.47;132.8;10.20;74110;5144.892;-12758.741;1;259;-450;-451.6;36.5;36.8;0;-0.5;29.2;0.0;
20/10/2023 00:10:00;100;0;247.89;17;-17.57;-2.24;135.3;10.20;74104;5144.890;-12758.746;1;259;-450;-451.6;36.5;36.8;0;-0.9;29.2;0.0;
20/10/2023 00:10:20;100;0;249.98;17;-17.42;-2.29;137.9;10.20;74086;5144.889;-12758.752;1;259;-450;-451.6;36.5;36.8;2;1.8;29.2;0.0;
20/10/2023 00:10:40;100;0;252.79;17;-17.53;-0.79;140.5;10.10;74083;5144.888;-12758.757;1;259;-450;-451.6;36.5;36.8;2;2.7;29.2;0.0;
20/10/2023 00:11:00;100;0;252.92;17;-17.46;-0.59;143.0;10.10;74079;5144.887;-12758.763;1;259;-450;-451.6;36.5;36.8;2;2.3;29.2;0.0;
20/10/2023 00:11:20;100;0;254.34;17;-17.32;-0.62;145.8;10.10;74066;5144.886;-12758.769;1;259;-450;-451.6;36.5;36.8;4;4.1;29.2;0.0;
20/10/2023 00:11:40;100;0;253.68;17;-17.55;0.47;148.6;10.00;74073;5144.885;-12758.775;1;259;-450;-451.6;36.5;36.8;4;5.0;29.2;0.0;
20/10/2023 00:12:00;100;0;253.24;17;-16.89;0.39;151.1;10.00;74061;5144.884;-12758.781;1;259;-450;-451.6;36.9;36.9;4;5.0;29.2;0.0;
20/10/2023 00:12:20;100;0;252.87;17;-17.84;0.37;153.8;10.00;74054;5144.883;-12758.786;1;259;-450;-450.0;36.9;37.1;4;4.5;29.2;0.0;
20/10/2023 00:12:40;100;0;247.85;17;-17.72;0.54;156.6;9.90;74052;5144.881;-12758.792;1;259;-450;-451.6;36.9;37.1;0;-0.5;29.2;0.0;
20/10/2023 00:13:00;100;0;245.56;17;-17.63;-2.23;159.4;9.90;74048;5144.880;-12758.798;1;259;-450;-451.6;36.9;37.2;-3;-3.2;29.2;0.0;
20/10/2023 00:13:20;100;0;247.81;17;-18.00;-3.66;162.2;9.90;74033;5144.878;-12758.803;1;259;-450;-451.6;36.9;37.2;0;0.0;29.2;0.0;
20/10/2023 00:13:40;100;0;248.39;17;-17.57;-1.19;164.9;9.80;74038;5144.877;-12758.809;1;259;-450;-451.6;36.9;37.2;0;0.9;29.2;0.0;
20/10/2023 00:14:00;100;0;249.90;17;-17.37;-1.37;167.7;9.80;74025;5144.875;-12758.815;1;259;-450;-450.0;36.9;37.2;0;0.9;29.2;0.0;
20/10/2023 00:14:20;100;0;250.96;17;-17.63;-1.47;170.3;9.70;74008;5144.874;-12758.821;1;259;-450;-451.6;36.9;37.2;2;2.3;29.2;0.0;
20/10/2023 00:14:40;100;0;250.61;17;-17.52;-0.65;173.1;9.70;74022;5144.873;-12758.826;1;259;-450;-451.6;36.9;37.2;2;2.3;29.2;0.0;
20/10/2023 00:15:00;100;0;251.73;17;-17.56;-0.70;175.7;9.70;74010;5144.872;-12758.832;1;259;-450;-451.6;36.9;37.2;2;2.3;29.2;0.0;
20/10/2023 00:15:20;100;0;252.02;17;-18.26;-0.69;178.5;9.60;74001;5144.871;-12758.838;1;259;-450;-453.2;36.9;37.2;2;2.3;29.2;0.0;
20/10/2023 00:15:40;100;0;254.93;17;-17.90;-0.69;181.5;9.60;74001;5144.870;-12758.844;1;259;-450;-451.6;36.9;37.2;2;2.3;29.2;0.0;
20/10/2023 00:16:00;100;0;260.05;17;-17.32;-0.60;184.4;9.60;74001;5144.869;-12758.851;1;259;-450;-451.6;36.9;37.2;4;4.5;29.2;0.0;
20/10/2023 00:16:20;100;0;259.79;17;-17.17;0.37;187.1;9.60;73986;5144.868;-12758.857;1;259;-450;-450.0;36.9;37.2;4;5.0;29.2;0.0;
20/10/2023 00:16:40;100;0;261.96;17;-18.75;-0.11;189.7;9.50;73992;5144.868;-12758.862;1;259;-450;-451.6;36.9;37.2;4;5.0;29.2;0.0;
20/10/2023 00:17:00;100;0;263.97;17;-17.51;0.73;192.2;9.50;73989;5144.867;-12758.868;1;259;-450;-451.6;36.9;37.2;4;5.0;29.2;0.0;
20/10/2023 00:17:20;100;0;263.08;17;-17.06;-0.01;194.7;9.50;73987;5144.867;-12758.874;1;259;-450;-451.6;36.9;37.2;4;5.0;29.2;0.0;
20/10/2023 00:17:40;100;0;260.16;17;-16.90;0.37;197.1;9.40;73987;5144.866;-12758.879;1;259;-450;-451.6;37.2;37.2;4;5.0;29.2;0.0;
20/10/2023 00:18:00;100;0;264.93;17;-17.03;0.59;199.8;9.40;73979;5144.866;-12758.885;1;259;-450;-450.0;37.2;37.1;4;5.0;29.2;0.0;
20/10/2023 00:18:20;100;0;262.64;17;-18.16;0.46;202.1;9.40;73975;5144.866;-12758.890;1;259;-450;-451.6;37.2;37.2;4;5.0;29.2;0.0;
20/10/2023 00:18:40;100;0;262.86;17;-17.31;0.64;204.7;9.40;73978;5144.865;-12758.896;1;259;-450;-450.0;37.2;37.2;4;5.0;29.2;0.0;
20/10/2023 00:19:00;100;0;262.30;17;-17.16;0.52;207.0;9.30;73974;5144.865;-12758.901;1;259;-450;-451.6;37.2;37.2;4;5.0;29.2;0.0;
20/10/2023 00:19:20;100;0;264.07;17;-18.19;0.31;209.4;9.30;73969;5144.864;-12758.907;1;259;-450;-451.6;37.2;37.2;4;5.0;29.2;0.0;
20/10/2023 00:19:40;100;0;264.24;17;-16.98;0.59;212.1;9.30;73976;5144.864;-12758.913;1;259;-450;-451.6;37.5;37.7;4;5.0;29.2;0.0;
20/10/2023 00:20:00;100;0;264.63;17;-18.55;0.00;214.7;9.30;73961;5144.864;-12758.918;1;259;-450;-451.6;37.5;37.8;4;5.0;29.2;0.0;
20/10/2023 00:20:20;100;0;264.80;17;-19.07;0.44;217.3;9.20;73960;5144.863;-12758.924;1;259;-450;-450.0;37.5;37.8;4;5.0;29.2;0.0;
20/10/2023 00:20:40;100;0;263.32;17;-18.87;0.41;220.1;9.20;73953;5144.863;-12758.930;1;259;-450;-451.6;37.5;37.8;4;5.0;29.2;0.0;
20/10/2023 00:21:00;100;0;263.23;17;-19.03;0.34;222.6;9.20;73965;5144.862;-12758.935;1;259;-450;-451.6;37.5;37.8;4;5.0;29.2;0.0;
20/10/2023 00:21:20;100;0;262.31;17;-18.94;0.35;225.3;9.10;73954;5144.862;-12758.941;1;259;-450;-451.6;37.5;37.8;4;5.0;29.2;0.0;
20/10/2023 00:21:40;100;0;259.74;17;-18.56;0.52;227.9;9.10;73948;5144.861;-12758.946;1;259;-450;-451.6;37.5;37.8;4;5.0;29.2;0.0;
20/10/2023 00:22:00;100;0;256.97;17;-19.13;0.45;230.5;9.10;73949;5144.861;-12758.952;1;259;-450;-451.6;37.5;37.8;4;5.0;29.2;0.0;
20/10/2023 00:22:20;100;0;257.83;17;-18.81;0.92;233.2;9.10;73948;5144.860;-12758.958;1;259;-450;-451.6;37.5;38.0;4;5.0;29.2;0.0;
20/10/2023 00:22:40;100;0;257.29;17;-17.51;0.72;236.1;9.00;73953;5144.859;-12758.964;1;259;-450;-451.6;37.5;37.8;4;5.0;29.2;0.0;
20/10/2023 00:23:00;100;0;252.48;17;-19.40;1.07;238.2;9.00;73953;5144.858;-12758.968;1;259;-450;-451.6;37.5;37.8;4;5.0;29.2;0.0;
20/10/2023 00:23:20;100;0;247.91;17;-19.32;0.36;240.4;9.00;73937;5144.857;-12758.972;1;259;-450;-451.6;37.5;37.8;0;0.0;29.2;0.0;
20/10/2023 00:23:40;100;0;245.12;17;-17.34;-2.18;242.9;9.00;73936;5144.856;-12758.978;1;259;-450;-451.6;37.5;37.8;-3;-3.2;29.2;0.0;
20/10/2023 00:24:00;100;0;250.49;17;-17.80;-3.51;245.6;9.00;73937;5144.854;-12758.983;1;259;-450;-451.6;37.5;38.0;2;1.8;29.2;0.0;
20/10/2023 00:24:20;100;0;252.38;17;-19.63;-0.87;248.0;8.90;73927;5144.853;-12758.988;1;259;-450;-451.6;37.5;38.0;2;2.3;29.2;0.0;
20/10/2023 00:24:40;100;0;250.27;17;-19.11;-0.42;250.7;8.90;73943;5144.852;-12758.993;1;259;-450;-451.6;37.5;38.0;2;2.3;29.2;0.0;
20/10/2023 00:25:00;100;0;252.20;17;-18.91;-0.87;253.4;8.90;73932;5144.851;-12758.999;1;259;-450;-451.6;37.5;38.0;2;2.3;29.2;0.0;
20/10/2023 00:25:20;100;0;254.90;17;-19.65;-0.48;256.3;8.90;73927;5144.850;-12759.005;1;259;-450;-451.6;37.5;38.0;4;4.1;29.2;0.0;
20/10/2023 00:25:40;100;0;248.95;17;-19.06;0.50;259.2;8.90;73936;5144.849;-12759.011;1;259;-450;-451.6;37.5;38.0;1;0.9;29.2;0.0;
20/10/2023 00:26:00;100;0;243.35;17;-18.85;-1.43;262.0;8.90;73928;5144.847;-12759.016;1;259;-450;-451.6;37.5;37.8;-6;-5.9;29.2;0.0;
20/10/2023 00:26:20;100;0;246.64;17;-17.63;-4.10;264.8;8.80;73933;5144.845;-12759.022;1;259;-450;-451.6;37.5;38.0;-2;-1.8;29.2;0.0;
20/10/2023 00:26:40;100;0;250.71;17;-18.53;-2.35;267.5;8.80;73926;5144.844;-12759.027;1;259;-450;-451.6;37.5;38.0;2;2.3;29.2;0.0;
20/10/2023 00:27:00;100;0;249.19;17;-18.99;-0.54;270.0;8.80;73915;5144.843;-12759.032;1;259;-450;-451.6;37.5;38.0;2;2.3;29.2;0.0;
20/10/2023 00:27:20;100;0;245.86;17;-17.86;-0.59;272.7;8.80;73923;5144.842;-12759.038;1;259;-450;-450.0;37.5;38.0;-3;-3.2;29.2;0.0;
20/10/2023 00:27:40;100;0;248.74;17;-18.93;-3.41;275.0;8.70;73915;5144.840;-12759.042;1;259;-450;-451.6;37.5;38.0;0;0.5;29.2;0.0;
20/10/2023 00:28:01;100;0;251.12;17;-18.57;-1.49;277.8;8.70;73917;5144.839;-12759.048;1;259;-450;-451.6;37.5;38.0;2;1.8;29.2;0.0;
20/10/2023 00:28:21;100;0;250.57;17;-19.18;-0.48;280.2;8.70;73922;5144.838;-12759.053;1;259;-450;-451.6;37.5;38.0;2;2.7;29.2;0.0;
20/10/2023 00:28:41;100;0;253.53;17;-19.92;-0.79;283.1;8.70;73923;5144.837;-12759.059;1;259;-450;-453.2;37.5;38.0;2;2.3;29.2;0.0;
20/10/2023 00:29:01;100;0;254.03;17;-18.78;-0.91;286.3;8.70;73919;5144.836;-12759.065;1;259;-450;-450.0;37.5;38.0;2;2.7;29.2;0.0;
20/10/2023 00:29:21;100;0;254.37;17;-18.41;-0.49;289.2;8.70;73922;5144.835;-12759.071;1;259;-450;-451.6;37.5;38.0;2;2.7;29.2;0.0;
20/10/2023 00:29:41;100;0;255.20;17;-18.77;-0.82;292.2;8.60;73913;5144.834;-12759.078;1;259;-450;-451.6;37.5;38.0;2;2.7;29.2;0.0;
20/10/2023 00:30:01;100;0;246.66;17;-18.26;-1.04;295.2;8.60;73900;5144.832;-12759.084;1;259;-450;-451.6;37.5;38.0;-2;-1.8;29.2;0.0;
20/10/2023 00:30:21;100;0;248.15;17;-18.34;-2.67;298.4;8.60;73923;5144.831;-12759.090;1;259;-450;-451.6;37.5;38.0;-2;-2.3;29.2;0.0;
20/10/2023 00:30:41;100;0;253.70;17;-19.62;-2.82;301.6;8.60;73912;5144.829;-12759.097;1;259;-450;-451.6;37.5;38.0;3;3.2;29.2;0.0;
20/10/2023 00:31:01;100;0;256.07;17;-18.60;-1.06;304.7;8.60;73911;5144.828;-12759.103;1;259;-450;-451.6;37.5;38.0;3;3.2;29.2;0.0;
20/10/2023 00:31:21;100;0;252.97;17;-18.55;-0.54;307.8;8.60;73904;5144.827;-12759.109;1;259;-450;-451.6;37.5;38.0;3;3.6;29.2;0.0;
20/10/2023 00:31:41;100;0;254.96;17;-17.41;-0.04;310.8;8.60;73909;5144.826;-12759.116;1;259;-450;-451.6;37.5;38.0;3;3.6;29.2;0.0;
20/10/2023 00:32:01;100;0;257.04;17;-17.97;-0.54;313.2;8.60;73912;5144.825;-12759.121;1;259;-450;-451.6;37.5;38.0;3;3.6;29.2;0.0;
20/10/2023 00:32:21;100;0;252.65;17;-18.78;-0.35;315.2;8.50;73905;5144.825;-12759.125;1;259;-450;-451.6;37.5;37.8;3;3.6;29.2;0.0;
20/10/2023 00:32:41;100;0;251.77;17;-19.26;-0.48;317.5;8.50;73914;5144.824;-12759.130;1;259;-450;-451.6;37.5;38.1;3;3.6;29.2;0.0;
20/10/2023 00:33:01;100;0;252.68;17;-17.87;-0.50;320.0;8.50;73904;5144.823;-12759.135;1;259;-450;-451.6;37.5;38.0;3;3.6;29.2;0.0;
20/10/2023 00:33:21;100;0;251.65;17;-19.28;-0.26;322.3;8.50;73910;5144.822;-12759.140;1;259;-450;-451.6;37.5;38.0;3;3.6;29.2;0.0;
20/10/2023 00:33:41;100;0;245.67;17;-18.76;-0.62;325.1;8.50;73910;5144.820;-12759.146;1;259;-450;-450.0;37.5;38.0;-4;-4.5;29.2;0.0;
20/10/2023 00:34:01;100;0;249.98;17;-17.02;-3.98;327.6;8.50;73912;5144.819;-12759.151;1;259;-450;-454.8;37.5;38.0;1;0.9;29.2;0.0;
20/10/2023 00:34:21;100;0;252.23;17;-19.02;-0.63;329.9;8.50;73912;5144.818;-12759.156;1;259;-450;-450.0;37.5;38.0;1;1.4;29.2;0.0;
20/10/2023 00:34:41;100;0;253.47;17;-18.72;-0.87;332.2;8.40;73899;5144.817;-12759.160;1;259;-450;-451.6;37.5;38.0;1;1.4;29.2;0.0;
20/10/2023 00:35:01;100;0;257.11;17;-19.06;-1.23;334.8;8.40;73900;5144.816;-12759.166;1;259;-450;-451.6;37.5;38.0;3;3.2;29.2;0.0;
20/10/2023 00:35:21;100;0;260.21;17;-18.82;0.02;337.6;8.40;73908;5144.816;-12759.172;1;259;-450;-451.6;37.5;38.0;3;3.6;29.2;0.0;
20/10/2023 00:35:41;100;0;262.39;17;-18.36;-0.05;340.5;8.40;73909;5144.815;-12759.178;1;259;-450;-451.6;37.5;38.0;3;3.6;29.2;0.0;
20/10/2023 00:36:01;100;0;262.22;17;-18.63;0.05;343.3;8.40;73899;5144.815;-12759.184;1;259;-450;-451.6;37.5;38.0;3;3.6;29.2;0.0;
20/10/2023 00:36:21;100;0;263.86;17;-18.68;-0.23;346.5;8.40;73903;5144.814;-12759.191;1;259;-450;-451.6;37.5;38.0;3;3.6;29.2;0.0;
20/10/2023 00:36:41;100;0;264.37;17;-17.83;-0.02;349.4;8.40;73898;5144.814;-12759.197;1;259;-450;-451.6;37.5;38.0;3;3.6;29.2;0.0;
20/10/2023 00:37:01;100;0;261.97;17;-18.31;0.13;352.4;8.40;73896;5144.813;-12759.204;1;259;-450;-451.6;37.5;38.0;3;3.6;29.2;0.0;
20/10/2023 00:37:21;100;0;263.73;17;-19.26;0.01;355.2;8.40;73899;5144.813;-12759.210;1;259;-450;-451.6;37.5;38.0;3;3.6;29.2;0.0;
20/10/2023 00:37:41;100;0;263.98;17;-17.61;-0.32;358.1;8.40;73910;5144.812;-12759.216;1;259;-450;-451.6;37.5;38.0;3;3.6;29.2;0.0;
20/10/2023 00:38:01;100;0;265.43;17;-18.96;-0.91;361.0;8.30;73912;5144.812;-12759.222;1;259;-450;-451.6;37.5;38.0;3;3.6;29.2;0.0;
20/10/2023 00:38:21;100;0;268.97;17;-18.29;0.34;364.0;8.30;73900;5144.812;-12759.229;1;259;-450;-451.6;37.5;38.0;6;6.3;29.2;0.0;
20/10/2023 00:38:41;100;0;264.55;17;-17.49;2.04;367.3;8.30;73907;5144.812;-12759.237;1;259;-450;-451.6;37.5;38.0;4;4.1;29.2;0.0;
20/10/2023 00:39:01;100;0;262.92;17;-18.32;-0.27;370.3;8.30;73904;5144.811;-12759.243;1;259;-450;-451.6;37.5;38.0;4;3.6;29.2;0.0;
20/10/2023 00:39:21;100;0;264.36;17;-17.94;-0.09;373.2;8.30;73894;5144.811;-12759.250;1;259;-450;-451.6;37.5;38.0;4;3.6;29.2;0.0;
20/10/2023 00:39:41;100;0;264.84;17;-17.87;-0.43;376.1;8.30;73909;5144.810;-12759.256;1;259;-450;-451.6;37.5;38.0;4;3.6;29.2;0.0;
20/10/2023 00:40:01;100;0;263.58;17;-18.47;-0.30;378.8;8.30;73916;5144.810;-12759.262;1;259;-450;-451.6;37.5;38.0;4;3.6;29.2;0.0;
20/10/2023 00:40:21;100;0;263.43;17;-18.41;0.07;381.5;8.30;73902;5144.810;-12759.268;1;259;-450;-451.6;37.5;38.0;4;3.6;29.2;0.0;
20/10/2023 00:40:41;100;0;265.58;17;-18.02;-0.19;384.2;8.30;73899;5144.809;-12759.274;1;259;-450;-451.6;37.5;38.0;4;3.6;29.2;43.0;
20/10/2023 00:41:01;100;0;266.62;17;-17.40;-0.25;386.6;8.20;73909;5144.809;-12759.280;1;259;-450;-451.6;37.5;38.0;4;3.6;29.2;40.9;
20/10/2023 00:41:21;100;0;265.37;17;-19.76;-0.58;388.8;8.20;73906;5144.809;-12759.284;1;259;-450;-451.6;37.5;38.0;4;3.6;29.2;38.5;
20/10/2023 00:41:41;100;0;265.38;17;-18.65;-1.04;391.0;8.20;73901;5144.809;-12759.289;1;259;-450;-453.2;37.5;38.0;4;3.6;29.2;36.2;
20/10/2023 00:42:01;100;0;258.49;17;-19.63;-0.40;393.2;8.20;73899;5144.808;-12759.293;1;259;-450;-454.8;37.5;38.0;4;3.6;29.2;33.9;
20/10/2023 00:42:21;100;0;257.22;17;-18.54;-0.29;395.6;8.20;73893;5144.807;-12759.298;1;259;-450;-451.6;37.5;38.0;4;3.6;29.2;31.7;
20/10/2023 00:42:41;100;0;255.43;17;-18.03;0.02;397.9;8.20;73894;5144.807;-12759.303;1;259;-450;-451.6;37.5;38.0;4;3.6;29.2;29.2;
20/10/2023 00:43:01;100;0;256.59;17;-18.25;0.38;400.4;8.20;73897;5144.806;-12759.309;1;259;-450;-451.6;37.5;38.0;4;3.6;29.2;27.4;
20/10/2023 00:43:12;118;0;259.15;17;-17.64;0.39;402.0;8.20;73897;5144.805;-12759.312;1;259;400;-451.6;50.0;49.9;-4;-4.1;29.2;26.0;
20/10/2023 00:43:22;118;0;169.54;17;-32.35;-3.55;403.6;8.20;73816;5144.804;-12759.312;1;259;400;-395.2;50.0;50.2;-4;-4.5;29.2;-1.0;
20/10/2023 00:43:32;118;0;171.81;17;-39.14;-3.58;406.1;8.20;73557;5144.802;-12759.311;1;259;400;-269.4;50.0;50.2;-4;-4.5;28.5;-1.0;
20/10/2023 00:43:42;118;0;170.93;17;-39.65;-4.38;408.3;8.20;73300;5144.801;-12759.311;1;259;400;-143.5;50.0;50.2;-4;-4.1;28.5;-1.0;
20/10/2023 00:43:52;118;0;172.71;17;-40.40;-4.24;409.4;8.20;73045;5144.800;-12759.311;1;259;400;-19.4;50.0;50.4;-4;-4.1;28.4;-1.0;
20/10/2023 00:44:02;118;0;172.65;17;-41.01;-4.31;409.1;8.20;72804;5144.800;-12759.311;1;259;400;106.5;50.0;50.2;-4;-4.5;28.4;-1.0;
20/10/2023 00:44:12;118;0;164.70;17;-16.43;-4.17;407.5;8.20;72540;5144.798;-12759.310;1;259;400;238.7;50.0;50.2;-4;-4.1;28.5;-1.0;
20/10/2023 00:44:22;118;0;158.01;17;-8.00;-4.15;406.6;8.20;72295;5144.796;-12759.309;1;259;400;366.1;50.0;50.2;-4;-4.5;28.5;-1.0;
20/10/2023 00:44:32;118;0;184.03;17;-16.20;-3.46;405.0;8.20;72166;5144.794;-12759.309;1;259;400;403.2;50.0;50.4;-4;-4.1;28.5;-1.0;
20/10/2023 00:44:52;117;0;93.22;17;-12.11;-3.67;402.7;8.20;72166;5144.794;-12759.304;1;259;400;404.8;42.0;42.1;-4;-4.1;29.1;-1.0;
20/10/2023 00:45:12;117;0;41.83;17;-7.64;-4.08;400.6;8.20;72175;5144.797;-12759.300;1;259;400;404.8;34.3;34.0;-70;-42.0;29.2;-1.0;
20/10/2023 00:45:32;117;0;308.29;17;-13.86;-37.15;397.7;8.20;72166;5144.799;-12759.305;1;259;400;406.5;24.8;24.8;-64;-63.2;29.2;-1.0;
20/10/2023 00:45:52;117;0;209.80;17;-2.79;-34.00;395.2;8.20;72172;5144.798;-12759.307;1;259;400;404.8;18.5;18.2;54;-22.6;29.2;-1.0;
20/10/2023 00:46:12;117;0;234.72;17;9.50;25.51;392.5;8.20;72174;5144.795;-12759.312;1;259;400;406.5;16.0;15.7;19;19.0;29.2;-1.0;
20/10/2023 00:46:32;117;0;253.60;17;24.34;8.47;389.2;8.20;72165;5144.794;-12759.318;1;259;400;406.5;17.9;18.0;-4;-4.1;29.2;-1.0;
20/10/2023 00:46:52;117;0;253.05;17;31.48;-2.23;381.7;8.20;72159;5144.793;-12759.328;1;259;400;408.1;21.9;21.9;-4;-4.5;29.2;-1.0;
20/10/2023 00:47:12;117;0;256.34;17;26.64;-1.04;373.3;8.20;72156;5144.791;-12759.341;1;259;400;406.5;24.5;24.5;-4;-4.5;29.2;-1.0;
20/10/2023 00:47:32;117;0;259.74;17;21.65;-3.10;366.4;8.20;72162;5144.789;-12759.354;1;259;400;408.1;25.6;25.6;-4;-4.5;29.2;-1.0;
20/10/2023 00:47:52;117;0;264.56;17;18.18;-4.17;359.8;8.20;72154;5144.788;-12759.368;1;259;400;406.5;25.6;25.7;-4;-4.5;29.2;-1.0;
20/10/2023 00:48:12;117;0;263.57;17;16.36;-3.15;353.7;8.20;72155;5144.787;-12759.383;1;259;400;408.1;25.1;25.1;-4;-4.5;29.2;-1.0;
20/10/2023 00:48:32;117;0;264.41;17;16.42;-3.09;348.8;8.20;72149;5144.787;-12759.394;1;259;400;406.5;24.6;24.5;-4;-4.5;29.2;-1.0;
20/10/2023 00:48:52;117;0;264.84;17;19.13;-3.06;344.5;8.20;72140;5144.786;-12759.403;1;259;400;406.5;24.6;24.4;-4;-4.5;29.2;-1.0;
20/10/2023 00:49:12;117;0;265.65;17;20.23;-2.91;339.8;8.10;72144;5144.786;-12759.413;1;259;400;408.1;25.3;25.3;-6;-6.3;29.2;-1.0;
20/10/2023 00:49:32;117;0;266.73;17;17.87;-3.82;334.0;8.10;72142;5144.785;-12759.426;1;259;400;406.5;25.3;25.4;-6;-6.3;29.2;-1.0;
20/10/2023 00:49:52;117;0;264.47;17;18.81;-4.18;329.2;8.10;72136;5144.784;-12759.436;1;259;400;406.5;25.3;25.4;-6;-6.3;29.2;-1.0;
20/10/2023 00:50:12;117;0;264.51;17;17.28;-4.42;324.4;8.10;72130;5144.784;-12759.447;1;259;400;406.5;25.3;25.4;-6;-5.9;29.2;-1.0;
20/10/2023 00:50:32;117;0;268.99;17;18.30;-4.18;319.9;8.10;72125;5144.784;-12759.457;1;259;400;406.5;25.3;25.4;-8;-8.1;29.2;-1.0;
20/10/2023 00:50:52;117;0;264.92;17;17.83;-5.33;315.6;8.10;72128;5144.783;-12759.467;1;259;400;406.5;25.3;25.4;-6;-5.9;29.2;-1.0;
20/10/2023 00:51:12;117;0;262.87;17;16.49;-3.63;311.6;8.10;72125;5144.782;-12759.476;1;259;400;406.5;24.8;24.7;-6;-5.4;29.2;-1.0;
20/10/2023 00:51:32;117;0;265.01;17;18.50;-3.95;308.0;8.10;72135;5144.782;-12759.484;1;259;400;406.5;24.8;24.5;-6;-5.4;29.2;-1.0;
20/10/2023 00:51:52;117;0;263.47;17;19.29;-3.62;303.9;8.10;72123;5144.781;-12759.493;1;259;400;406.5;24.8;24.5;-6;-5.4;29.2;-1.0;
20/10/2023 00:52:12;117;0;261.24;17;18.97;-3.66;299.4;8.10;72109;5144.781;-12759.502;1;259;400;408.1;24.8;24.5;-6;-5.4;29.2;-1.0;
20/10/2023 00:52:32;117;0;263.42;17;19.38;-3.43;295.0;8.10;72115;5144.780;-12759.511;1;259;400;408.1;24.8;24.5;-6;-5.4;29.2;-1.0;
20/10/2023 00:52:52;117;0;261.89;17;20.33;-3.98;290.4;8.10;72108;5144.779;-12759.521;1;259;400;408.1;25.5;25.7;-6;-5.4;29.2;-1.0;
20/10/2023 00:53:12;117;0;269.57;17;18.99;-4.57;285.9;8.10;72109;5144.779;-12759.530;1;259;400;406.5;25.5;25.9;-9;-9.0;29.2;-1.0;
20/10/2023 00:53:32;117;0;268.49;17;15.27;-6.51;281.9;8.10;72104;5144.779;-12759.540;1;259;400;408.1;24.7;24.7;-9;-9.5;29.2;-1.0;
20/10/2023 00:53:52;117;0;272.31;17;19.06;-5.73;278.5;8.00;72096;5144.779;-12759.548;1;259;400;408.1;24.7;24.4;-12;-12.2;29.2;-1.0;
20/10/2023 00:54:12;117;0;267.26;17;18.91;-7.44;274.4;8.10;72110;5144.779;-12759.556;1;259;400;408.1;24.7;24.5;-7;-7.2;29.2;-1.0;
20/10/2023 00:54:32;117;0;266.30;17;19.04;-4.19;270.1;8.00;72102;5144.778;-12759.565;1;259;400;406.5;24.7;24.5;-7;-6.8;29.2;-1.0;
20/10/2023 00:54:52;117;0;267.13;17;19.00;-4.18;265.5;8.00;72099;5144.778;-12759.575;1;259;400;406.5;24.7;24.5;-7;-6.8;29.2;-1.0;
20/10/2023 00:55:12;117;0;267.05;17;18.55;-4.28;260.9;8.00;72089;5144.778;-12759.585;1;259;400;406.5;24.7;24.4;-7;-6.8;29.2;-1.0;
20/10/2023 00:55:32;117;0;266.67;17;18.82;-4.01;256.3;8.00;72091;5144.777;-12759.595;1;259;400;408.1;24.7;24.4;-7;-6.8;29.2;-1.0;
20/10/2023 00:55:52;117;0;265.52;17;18.59;-4.30;251.7;8.00;72091;5144.777;-12759.605;1;259;400;406.5;24.7;24.5;-7;-6.8;29.2;-1.0;
20/10/2023 00:56:12;117;0;265.21;17;18.50;-4.20;247.2;8.00;72091;5144.776;-12759.615;1;259;400;406.5;24.7;24.5;-7;-6.8;29.2;-1.0;
20/10/2023 00:56:32;117;0;266.14;17;18.82;-4.19;242.7;8.00;72083;5144.776;-12759.624;1;259;400;408.1;24.7;24.4;-7;-6.8;29.2;-1.0;
20/10/2023 00:56:52;117;0;264.10;17;18.60;-4.32;238.2;8.00;72087;5144.775;-12759.634;1;259;400;406.5;24.7;24.5;-7;-6.8;29.2;-1.0;
20/10/2023 00:57:12;117;0;262.99;17;18.59;-4.27;233.8;8.00;72075;5144.775;-12759.643;1;259;400;408.1;24.7;24.5;-7;-6.8;29.2;-1.0;
20/10/2023 00:57:32;117;0;261.81;17;18.61;-4.21;229.3;8.00;72079;5144.774;-12759.653;1;259;400;406.5;24.7;24.5;-7;-6.8;29.2;-1.0;
20/10/2023 00:57:52;117;0;260.34;17;18.56;-4.24;225.1;8.00;72073;5144.773;-12759.662;1;259;400;408.1;24.7;24.4;-7;-6.8;29.2;-1.0;
20/10/2023 00:58:12;117;0;258.30;17;18.51;-4.27;220.8;8.00;72077;5144.772;-12759.671;1;259;400;406.5;24.7;24.4;-5;-5.0;29.2;-1.0;
20/10/2023 00:58:32;117;0;258.23;17;18.56;-3.02;216.6;8.00;72077;5144.771;-12759.680;1;259;400;406.5;24.7;24.5;-5;-4.5;29.2;-1.0;
20/10/2023 00:58:52;117;0;259.74;17;18.66;-3.11;212.3;8.00;72083;5144.770;-12759.689;1;259;400;408.1;24.7;24.5;-5;-4.5;29.2;-1.0;
20/10/2023 00:59:12;117;0;259.71;17;18.46;-3.02;208.2;8.00;72071;5144.769;-12759.698;1;259;400;406.5;24.7;24.5;-5;-4.5;29.2;-1.0;
20/10/2023 00:59:32;117;0;259.79;17;18.32;-3.11;204.0;8.00;72071;5144.768;-12759.707;1;259;400;406.5;24.7;24.5;-5;-4.5;29.2;-1.0;
20/10/2023 00:59:52;117;0;255.53;17;18.39;-3.61;200.0;8.00;72063;5144.766;-12759.716;1;259;400;408.1;24.7;24.4;-5;-4.5;29.2;-1.0;
20/10/2023 01:00:12;117;0;250.24;17;20.17;-2.63;195.4;8.00;72060;5144.764;-12759.724;1;259;400;406.5;25.4;25.6;-3;-2.7;29.2;-1.0;
20/10/2023 01:00:32;117;0;250.24;17;15.75;-4.83;191.3;8.00;72070;5144.762;-12759.734;1;259;400;408.1;24.7;24.7;-3;-2.7;29.2;-1.0;
20/10/2023 01:00:52;117;0;252.01;17;17.63;-1.43;187.1;8.00;72066;5144.760;-12759.743;1;259;400;406.5;24.7;24.5;-3;-2.7;29.2;-1.0;
20/10/2023 01:01:12;117;0;248.11;17;17.05;-2.01;182.0;8.00;72062;5144.758;-12759.753;1;259;400;406.5;24.7;24.5;-1;-0.5;29.2;-1.0;
20/10/2023 01:01:33;117;0;245.39;17;17.45;-0.94;177.4;8.00;72064;5144.755;-12759.763;1;259;400;408.1;24.7;24.5;2;1.8;29.2;-1.0;
20/10/2023 01:01:53;117;0;244.99;17;17.64;0.51;173.2;8.00;72062;5144.753;-12759.771;1;259;400;408.1;24.7;24.5;2;2.7;29.2;-1.0;
20/10/2023 01:02:13;117;0;252.61;17;17.80;0.61;169.1;8.00;72059;5144.751;-12759.780;1;259;400;406.5;24.7;24.5;-4;-4.1;29.2;-1.0;
20/10/2023 01:02:33;117;0;254.58;17;18.17;-2.96;165.1;8.00;72062;5144.749;-12759.789;1;259;400;406.5;24.7;24.4;-4;-4.5;29.2;-1.0;
20/10/2023 01:02:53;117;0;256.02;17;18.15;-3.14;160.9;8.00;72059;5144.748;-12759.798;1;259;400;408.1;24.7;24.5;-4;-4.5;29.2;-1.0;
20/10/2023 01:03:13;117;0;259.13;17;17.85;-3.00;156.8;8.00;72064;5144.747;-12759.807;1;259;400;406.5;24.7;24.5;-4;-4.5;29.2;-1.0;
20/10/2023 01:03:33;117;0;263.01;17;17.56;-2.79;152.8;8.00;72068;5144.746;-12759.815;1;259;400;406.5;24.7;24.5;-4;-4.5;29.2;-1.0;
20/10/2023 01:03:53;117;0;263.66;17;16.88;-3.20;148.7;8.00;72074;5144.746;-12759.825;1;259;400;406.5;24.4;24.5;-6;-5.9;29.2;-1.0;
20/10/2023 01:04:13;117;0;264.86;17;16.81;-4.05;144.9;7.90;72063;5144.745;-12759.833;1;259;400;406.5;24.0;23.9;-6;-6.3;29.2;-1.0;
20/10/2023 01:04:33;117;0;267.02;17;18.68;-4.17;141.0;8.00;72078;5144.745;-12759.842;1;259;400;406.5;24.0;23.8;-6;-5.9;29.2;-1.0;
20/10/2023 01:04:53;117;0;265.07;17;19.28;-4.43;136.7;8.00;72074;5144.744;-12759.851;1;259;400;408.1;24.0;23.9;-6;-6.3;29.2;-1.0;
20/10/2023 01:05:13;117;0;270.43;17;19.06;-3.83;132.4;8.00;72072;5144.744;-12759.860;1;259;400;408.1;24.0;23.8;-10;-10.4;29.2;-1.0;
20/10/2023 01:05:33;117;0;265.91;17;18.66;-5.99;127.9;8.00;72083;5144.744;-12759.870;1;259;400;408.1;24.0;23.8;-7;-7.2;29.2;-1.0;
20/10/2023 01:05:53;117;0;261.85;17;18.34;-4.62;123.4;8.00;72088;5144.743;-12759.880;1;259;400;406.5;24.0;23.8;-5;-5.0;29.2;-1.0;
20/10/2023 01:06:13;117;0;263.21;17;17.98;-3.04;119.0;8.00;72097;5144.742;-12759.889;1;259;400;406.5;24.0;23.8;-5;-4.5;29.2;-1.0;
20/10/2023 01:06:33;117;0;266.39;17;17.75;-3.51;114.9;8.00;72095;5144.742;-12759.899;1;259;400;408.1;24.0;23.8;-7;-7.2;29.2;-1.0;
20/10/2023 01:06:53;117;0;261.90;17;17.32;-5.18;110.8;8.00;72105;5144.741;-12759.908;1;259;400;406.5;24.0;23.8;-7;-7.7;29.2;-1.0;
20/10/2023 01:07:13;117;0;257.90;17;18.17;-4.97;106.9;8.00;72116;5144.740;-12759.916;1;259;400;406.5;24.0;23.8;-5;-4.5;29.2;-1.0;
20/10/2023 01:07:33;117;0;253.08;17;17.26;-4.17;102.8;8.00;72104;5144.738;-12759.925;1;259;400;408.1;24.0;23.8;-5;-4.1;29.2;-1.0;
20/10/2023 01:07:53;117;0;254.46;17;17.23;-2.82;99.3;8.00;72126;5144.737;-12759.933;1;259;400;408.1;24.0;23.8;-5;-4.1;29.2;-1.0;
20/10/2023 01:08:13;117;0;260.15;17;16.64;-2.98;95.7;8.00;72143;5144.736;-12759.941;1;259;400;408.1;23.6;23.4;-5;-4.1;29.2;-1.0;
20/10/2023 01:08:33;117;0;256.74;17;17.47;-3.14;92.3;8.00;72174;5144.735;-12759.949;1;259;400;408.1;23.6;23.4;-5;-4.1;29.2;-1.0;
20/10/2023 01:08:53;117;0;253.23;17;17.06;-3.42;88.4;8.10;72214;5144.734;-12759.957;1;259;400;408.1;23.6;23.3;-5;-4.1;29.2;-1.0;
20/10/2023 01:09:13;117;0;257.13;17;16.05;-2.43;84.6;8.10;72257;5144.732;-12759.966;1;259;400;408.1;23.0;22.8;-5;-4.1;29.2;-1.0;
20/10/2023 01:09:33;117;0;263.69;17;16.80;-2.82;80.8;8.10;72294;5144.732;-12759.975;1;259;400;408.1;22.7;22.7;-5;-4.1;29.2;-1.0;
20/10/2023 01:09:53;117;0;267.27;17;16.82;-3.12;77.0;8.20;72339;5144.731;-12759.983;1;259;400;408.1;22.3;21.9;-7;-7.2;29.2;-1.0;
20/10/2023 01:10:13;117;0;269.81;17;18.29;-4.92;73.3;8.20;72356;5144.731;-12759.992;1;259;400;408.1;22.3;21.9;-9;-9.0;29.2;-1.0;
20/10/2023 01:10:33;117;0;268.81;17;18.33;-6.11;69.3;8.30;72398;5144.731;-12800.001;1;259;400;408.1;22.3;21.9;-9;-9.5;29.2;-1.0;
20/10/2023 01:10:53;117;0;267.02;17;18.50;-5.72;65.3;8.30;72427;5144.731;-12800.009;1;259;400;408.1;22.3;21.9;-7;-6.8;29.2;-1.0;
20/10/2023 01:11:13;117;0;265.06;17;18.33;-3.80;61.3;8.40;72439;5144.731;-12800.018;1;259;400;408.1;22.3;21.9;-7;-6.3;29.2;-1.0;
20/10/2023 01:11:33;117;0;266.67;17;17.91;-4.13;57.3;8.40;72490;5144.730;-12800.027;1;259;400;408.1;22.3;21.9;-7;-6.3;29.2;-1.0;
20/10/2023 01:11:53;117;0;266.95;17;18.07;-4.19;53.4;8.50;72498;5144.730;-12800.035;1;259;400;408.1;22.3;21.9;-7;-6.3;29.2;-1.0;
20/10/2023 01:12:13;117;0;264.82;17;18.01;-4.23;49.7;8.60;72511;5144.729;-12800.044;1;259;400;408.1;22.3;21.9;-7;-6.3;29.2;-1.0;
20/10/2023 01:12:33;117;0;263.67;17;18.39;-4.08;45.9;8.60;72520;5144.729;-12800.052;1;259;400;408.1;22.3;22.1;-7;-6.3;29.2;-1.0;
20/10/2023 01:12:53;117;0;260.65;17;17.82;-5.02;42.1;8.70;72532;5144.728;-12800.060;1;259;400;409.7;22.3;22.1;-7;-6.3;29.2;-1.0;
20/10/2023 01:13:13;117;0;256.60;17;17.69;-4.26;38.3;8.70;72530;5144.727;-12800.069;1;259;400;409.7;22.3;21.9;-7;-6.3;29.2;-1.0;
20/10/2023 01:13:33;117;0;255.65;17;17.74;-4.06;34.7;8.80;72544;5144.726;-12800.076;1;259;400;408.1;22.3;21.9;-7;-6.3;29.2;-1.0;
20/10/2023 01:13:53;117;0;257.67;17;17.12;-4.18;31.1;8.80;72543;5144.725;-12800.084;1;259;400;408.1;22.3;21.9;-7;-6.3;29.2;-1.0;
20/10/2023 01:14:13;117;0;258.67;17;16.84;-3.99;27.6;8.90;72537;5144.724;-12800.092;1;259;400;408.1;22.0;21.9;-7;-6.3;29.2;-1.0;
20/10/2023 01:14:33;117;0;263.04;17;16.71;-4.05;23.9;8.90;72544;5144.723;-12800.101;1;259;400;408.1;21.6;21.6;-7;-6.3;29.2;-1.0;
20/10/2023 01:14:53;117;0;261.04;17;17.65;-4.43;20.4;9.00;72546;5144.722;-12800.108;1;259;400;408.1;21.6;21.3;-7;-6.3;29.2;-1.0;
20/10/2023 01:15:13;117;0;255.20;17;17.84;-4.41;17.0;9.00;72539;5144.721;-12800.116;1;259;400;409.7;21.6;21.3;-5;-4.5;29.2;-1.0;
20/10/2023 01:15:33;117;0;251.66;17;17.83;-3.09;13.2;9.00;72538;5144.719;-12800.124;1;259;400;408.1;21.6;21.3;-5;-4.1;29.2;-1.0;
20/10/2023 01:15:53;117;0;254.80;17;17.14;-3.39;9.6;9.10;72526;5144.718;-12800.132;1;259;400;408.1;21.6;21.3;-5;-4.1;29.2;-1.0;
