Timestamp;NavState;SecurityLevel;Heading;Declination;Pitch;Roll;Depth;Temperature;Pa;Lat;Lon;DeadReckoning;DesiredH;BallastCmd;BallastPos;LinCmd;LinPos;AngCmd;AngPos;Voltage;Altitude;
01/01/1970 00:01:38;105;0;5.42;0;2.12;20.33;9.4;17.80;74172;0.000;0.000;0;-9999;500;498.4;100.0;100.0;0;0.9;29.4;-1.0;
01/01/1970 00:01:58;105;0;4.68;0;2.21;20.40;9.5;17.80;74175;0.000;0.000;0;-9999;500;498.4;100.0;100.0;0;1.4;29.4;-1.0;
01/01/1970 00:02:18;115;0;4.56;0;2.18;20.29;9.5;17.80;74176;0.000;0.000;0;-9999;500;500.0;100.0;100.0;0;1.4;29.4;-1.0;
01/01/1970 00:02:28;115;0;349.70;0;9.82;2.95;9.5;17.80;74170;0.000;0.000;0;-9999;500;498.4;100.0;100.0;0;0.9;29.4;-1.0;
19/10/2023 18:57:02;116;0;86.36;17;-28.75;15.49;9.5;17.80;74178;5139.275;-12807.742;0;-9999;500;500.0;100.0;101.2;0;5.0;29.4;-1.0;
19/10/2023 18:57:32;116;0;89.75;17;1.79;18.77;9.5;17.70;74173;5139.273;-12807.741;0;-9999;500;501.6;100.0;101.1;0;5.4;29.4;-1.0;
19/10/2023 18:58:07;116;0;89.78;17;1.76;18.69;9.4;17.80;74167;5139.273;-12807.742;0;-9999;500;500.0;100.0;101.1;0;5.4;29.4;-1.0;
19/10/2023 18:58:29;116;0;89.75;17;1.77;18.70;9.5;17.80;74160;5139.273;-12807.742;0;-9999;500;500.0;100.0;101.1;0;5.4;29.4;-1.0;
19/10/2023 18:58:49;116;0;89.84;17;1.76;18.70;9.4;17.80;74163;5139.273;-12807.743;0;-9999;500;500.0;100.0;101.1;0;5.4;29.4;-1.0;
19/10/2023 18:59:09;116;0;89.79;17;1.75;18.70;9.5;17.80;74165;5139.273;-12807.743;0;-9999;500;500.0;100.0;100.9;0;5.4;29.4;-1.0;
19/10/2023 18:59:29;116;0;89.81;17;1.76;18.70;9.5;17.80;74167;5139.273;-12807.744;0;-9999;500;498.4;100.0;101.1;0;5.4;29.4;-1.0;
19/10/2023 18:59:49;116;0;89.84;17;1.74;18.69;9.4;17.90;74159;5139.273;-12807.744;0;-9999;500;501.6;100.0;101.1;0;5.4;29.4;-1.0;
19/10/2023 19:00:09;116;0;89.85;17;1.73;18.69;9.5;17.90;74173;5139.273;-12807.744;0;-9999;500;498.4;100.0;100.9;0;5.0;29.4;-1.0;
19/10/2023 19:00:29;116;0;90.33;17;1.76;18.71;9.5;17.90;74163;5139.273;-12807.744;0;58;500;503.2;100.0;100.9;0;5.9;29.4;-1.0;
19/10/2023 19:00:49;116;0;89.64;17;1.77;18.71;9.4;17.90;74164;5139.274;-12807.744;0;58;500;500.0;100.0;101.1;0;5.4;29.4;-1.0;
19/10/2023 19:01:09;116;0;92.12;17;1.74;18.68;9.4;18.00;74165;5139.274;-12807.744;0;58;500;500.0;100.0;101.1;0;5.4;29.4;-1.0;
19/10/2023 19:01:29;116;0;89.86;17;1.75;18.71;9.4;18.00;74161;5139.274;-12807.744;0;58;500;498.4;100.0;101.1;0;5.4;29.4;-1.0;
19/10/2023 19:01:49;116;0;89.79;17;1.73;18.70;9.4;18.10;74155;5139.274;-12807.744;0;58;500;500.0;100.0;101.1;0;5.4;29.4;-1.0;
19/10/2023 19:02:09;116;0;89.74;17;1.73;18.69;9.3;18.10;74161;5139.274;-12807.744;0;58;500;498.4;100.0;101.2;0;5.4;29.4;-1.0;
19/10/2023 19:02:29;116;0;89.76;17;1.75;18.70;9.4;18.20;74162;5139.274;-12807.744;0;58;500;500.0;100.0;101.1;0;5.4;29.4;-1.0;
19/10/2023 19:02:49;116;0;89.76;17;1.73;18.68;9.4;18.20;74155;5139.274;-12807.744;0;58;500;501.6;100.0;101.1;0;5.4;29.4;-1.0;
19/10/2023 19:03:09;116;0;89.72;17;1.75;18.69;9.4;18.20;74157;5139.274;-12807.745;0;58;500;500.0;100.0;101.1;0;5.4;29.4;-1.0;
19/10/2023 19:03:29;116;0;89.81;17;1.73;18.69;9.4;18.30;74159;5139.274;-12807.746;0;58;500;498.4;100.0;101.1;0;5.4;29.3;-1.0;
19/10/2023 19:03:49;116;0;89.72;17;1.75;18.71;9.4;18.30;74154;5139.274;-12807.746;0;58;500;498.4;100.0;101.1;0;5.4;29.4;-1.0;
19/10/2023 19:04:09;116;0;89.67;17;1.75;18.71;9.4;18.30;74150;5139.274;-12807.746;0;58;500;500.0;100.0;101.1;0;5.4;29.4;-1.0;
19/10/2023 19:04:29;116;0;89.79;17;1.75;18.70;9.3;18.30;74151;5139.274;-12807.746;0;58;500;498.4;100.0;101.1;0;5.4;29.4;-1.0;
19/10/2023 19:05:06;116;0;90.03;17;1.75;18.70;9.4;18.40;74144;5139.274;-12807.744;0;58;500;496.8;100.0;101.1;0;5.4;29.4;-1.0;
19/10/2023 19:05:33;116;0;90.33;17;1.74;18.71;9.3;18.40;74155;5139.274;-12807.744;0;58;500;500.0;100.0;101.1;0;5.4;29.4;-1.0;
19/10/2023 19:05:53;116;0;89.69;17;1.75;18.70;9.3;18.40;74146;5139.273;-12807.744;0;39;500;498.4;100.0;101.1;0;5.4;29.4;-1.0;
19/10/2023 19:06:13;116;0;90.04;17;1.73;18.71;9.3;18.40;74147;5139.273;-12807.744;0;39;500;500.0;100.0;101.1;0;5.4;29.4;-1.0;
19/10/2023 19:06:33;116;0;89.75;17;1.74;18.71;9.4;18.40;74145;5139.273;-12807.744;0;39;500;500.0;100.0;101.1;0;5.4;29.4;-1.0;
19/10/2023 19:06:53;116;0;89.77;17;1.73;18.72;9.3;18.50;74142;5139.274;-12807.744;0;39;500;500.0;100.0;101.1;0;5.4;29.3;-1.0;
19/10/2023 19:07:13;116;0;89.78;17;1.72;18.70;9.2;18.50;74135;5139.273;-12807.744;0;39;500;498.4;100.0;101.1;0;5.4;29.4;-1.0;
19/10/2023 19:07:33;116;0;89.81;17;1.74;18.70;9.3;18.50;74132;5139.274;-12807.744;0;39;500;500.0;100.0;101.1;0;5.4;29.4;-1.0;
19/10/2023 19:07:53;116;0;89.71;17;1.74;18.68;9.3;18.50;74126;5139.274;-12807.744;0;39;500;500.0;100.0;101.1;0;5.4;29.4;-1.0;
19/10/2023 19:08:13;116;0;89.64;17;1.75;18.71;9.3;18.50;74125;5139.274;-12807.746;0;39;500;500.0;100.0;101.2;0;5.4;29.4;-1.0;
19/10/2023 19:08:33;116;0;90.08;17;1.72;18.69;9.3;18.50;74127;5139.274;-12807.745;0;39;500;500.0;100.0;101.1;0;5.4;29.4;-1.0;
19/10/2023 19:08:53;116;0;89.74;17;1.74;18.70;9.2;18.50;74127;5139.275;-12807.745;0;39;500;500.0;100.0;101.1;0;5.4;29.4;-1.0;
19/10/2023 19:09:13;116;0;89.65;17;1.74;18.72;9.2;18.50;74129;5139.275;-12807.745;0;39;500;500.0;100.0;101.1;0;5.4;29.4;-1.0;
19/10/2023 19:09:50;116;0;90.23;17;1.73;18.71;9.2;18.50;74120;5139.275;-12807.744;0;39;500;500.0;100.0;101.1;0;5.4;29.4;-1.0;
19/10/2023 19:10:13;116;0;90.40;17;1.72;18.73;9.3;18.50;74117;5139.275;-12807.742;0;39;500;498.4;100.0;101.1;0;5.4;29.4;-1.0;
19/10/2023 19:10:43;116;0;90.36;17;1.73;18.69;9.3;18.50;74114;5139.275;-12807.742;0;39;500;500.0;100.0;101.1;0;5.4;29.3;-1.0;
19/10/2023 19:11:06;116;0;90.68;17;1.74;18.71;9.2;18.60;74119;5139.275;-12807.742;0;39;500;500.0;100.0;101.1;0;5.4;29.3;-1.0;
19/10/2023 19:11:26;116;0;90.63;17;1.73;18.71;9.1;18.60;74108;5139.274;-12807.742;0;39;500;500.0;100.0;101.1;0;5.4;29.4;-1.0;
19/10/2023 19:11:48;116;0;90.39;17;1.74;18.70;9.2;18.60;74118;5139.275;-12807.742;0;39;500;500.0;100.0;101.1;0;5.4;29.4;-1.0;
19/10/2023 19:12:08;116;0;90.94;17;1.73;18.72;9.2;18.60;74117;5139.275;-12807.742;0;39;500;500.0;100.0;101.1;0;5.4;29.4;-1.0;
19/10/2023 19:12:28;116;0;89.90;17;1.73;18.69;9.2;18.60;74121;5139.275;-12807.742;0;39;500;498.4;100.0;101.1;0;5.4;29.3;-1.0;
19/10/2023 19:12:48;116;0;89.80;17;1.74;18.71;9.2;18.60;74118;5139.276;-12807.742;0;39;500;500.0;100.0;101.1;0;5.4;29.4;-1.0;
19/10/2023 19:13:08;116;0;89.87;17;1.75;18.72;9.2;18.60;74118;5139.276;-12807.742;0;39;500;500.0;100.0;101.1;0;5.4;29.4;-1.0;
19/10/2023 19:13:28;116;0;89.90;17;1.73;18.70;9.1;18.60;74120;5139.276;-12807.742;0;39;500;500.0;100.0;101.1;0;5.4;29.4;-1.0;
19/10/2023 19:13:48;116;0;90.00;17;1.73;18.67;9.2;18.60;74114;5139.275;-12807.742;0;39;500;500.0;100.0;101.1;0;5.4;29.3;-1.0;
19/10/2023 19:14:08;116;0;89.94;17;1.72;18.73;9.2;18.70;74110;5139.275;-12807.742;0;39;500;500.0;100.0;101.1;0;5.4;29.4;-1.0;
19/10/2023 19:14:28;116;0;89.91;17;1.73;18.73;9.1;18.70;74113;5139.275;-12807.742;0;39;500;500.0;100.0;101.1;0;5.4;29.3;-1.0;
19/10/2023 19:14:48;116;0;90.04;17;1.72;18.70;9.2;18.70;74104;5139.275;-12807.742;0;39;500;500.0;100.0;101.1;0;5.4;29.4;-1.0;
19/10/2023 19:15:08;116;0;89.93;17;1.72;18.70;9.1;18.70;74107;5139.275;-12807.743;0;39;500;500.0;100.0;101.1;0;5.4;29.3;-1.0;
19/10/2023 19:15:28;116;0;89.84;17;1.72;18.71;9.1;18.70;74113;5139.275;-12807.743;0;39;500;498.4;100.0;101.1;0;5.4;29.3;-1.0;
19/10/2023 19:15:48;116;0;89.84;17;1.72;18.71;9.2;18.70;74107;5139.275;-12807.743;0;39;500;500.0;100.0;101.1;0;5.4;29.3;-1.0;
19/10/2023 19:16:08;116;0;89.82;17;1.74;18.71;9.2;18.70;74107;5139.275;-12807.745;0;39;500;500.0;100.0;101.1;0;5.4;29.3;-1.0;
19/10/2023 19:16:45;116;0;90.49;17;1.74;18.72;9.1;18.70;74099;5139.274;-12807.743;0;39;500;498.4;100.0;101.1;0;5.4;29.4;-1.0;
19/10/2023 19:17:05;116;0;90.14;17;1.74;18.73;9.1;18.80;74091;5139.274;-12807.743;0;39;500;498.4;100.0;101.1;0;5.4;29.3;-1.0;
19/10/2023 19:17:25;116;0;90.84;17;1.71;18.70;9.0;18.80;74102;5139.272;-12807.741;0;39;500;500.0;100.0;101.1;0;5.4;29.3;-1.0;
19/10/2023 19:17:45;116;0;90.00;17;1.72;18.72;9.1;18.80;74098;5139.271;-12807.740;0;39;500;498.4;100.0;101.1;0;5.4;29.3;-1.0;
19/10/2023 19:18:05;116;0;90.18;17;1.73;18.74;9.1;18.80;74095;5139.272;-12807.740;0;39;500;500.0;100.0;101.1;0;5.4;29.3;-1.0;
19/10/2023 19:18:25;116;0;90.10;17;1.71;18.70;9.1;18.80;74091;5139.272;-12807.740;0;39;500;500.0;100.0;101.1;0;5.4;29.3;-1.0;
19/10/2023 19:18:45;116;0;89.88;17;1.73;18.71;9.1;18.80;74091;5139.272;-12807.740;0;39;500;501.6;100.0;101.2;0;5.4;29.3;-1.0;
19/10/2023 19:19:05;116;0;89.95;17;1.73;18.72;9.1;18.80;74087;5139.272;-12807.740;0;39;500;500.0;100.0;101.1;0;5.4;29.3;-1.0;
19/10/2023 19:19:25;116;0;90.00;17;1.72;18.71;9.2;18.80;74101;5139.271;-12807.741;0;39;500;500.0;100.0;101.1;0;5.4;29.3;-1.0;
19/10/2023 19:19:45;116;0;89.92;17;1.73;18.69;9.0;18.80;74095;5139.271;-12807.740;0;39;500;500.0;100.0;101.1;0;5.4;29.3;-1.0;
19/10/2023 19:20:05;116;0;89.82;17;1.73;18.73;9.1;18.80;74085;5139.273;-12807.743;0;39;500;500.0;100.0;101.1;0;5.4;29.3;-1.0;
19/10/2023 19:20:25;116;0;89.84;17;1.73;18.71;9.1;18.90;74096;5139.273;-12807.744;0;39;500;500.0;100.0;101.1;0;5.4;29.4;-1.0;
19/10/2023 19:20:45;116;0;89.90;17;1.72;18.72;9.1;18.90;74104;5139.273;-12807.744;0;39;500;500.0;100.0;101.1;0;5.4;29.3;-1.0;
19/10/2023 19:21:05;116;0;89.99;17;1.72;18.72;9.1;18.90;74088;5139.273;-12807.744;0;39;500;500.0;100.0;101.1;0;5.4;29.4;-1.0;
19/10/2023 19:21:25;116;0;89.90;17;1.72;18.72;9.1;18.90;74090;5139.274;-12807.744;0;39;500;500.0;100.0;101.1;0;5.4;29.3;-1.0;
19/10/2023 19:21:45;116;0;89.81;17;1.74;18.71;9.1;18.90;74081;5139.274;-12807.744;0;39;500;498.4;100.0;101.1;0;5.4;29.4;-1.0;
19/10/2023 19:22:05;116;0;89.85;17;1.72;18.70;9.0;18.90;74093;5139.274;-12807.744;0;39;500;498.4;100.0;101.1;0;5.4;29.4;-1.0;
19/10/2023 19:22:25;116;0;89.90;17;1.72;18.70;9.1;18.90;74084;5139.274;-12807.744;0;39;500;498.4;100.0;101.1;0;5.4;29.3;-1.0;
19/10/2023 19:23:02;116;0;90.55;17;1.73;18.70;9.0;18.90;74093;5139.274;-12807.744;0;39;500;500.0;100.0;101.1;0;5.4;29.3;-1.0;
19/10/2023 19:23:22;116;0;90.02;17;1.74;18.71;9.0;18.90;74088;5139.274;-12807.744;0;39;500;500.0;100.0;101.1;0;5.4;29.3;-1.0;
19/10/2023 19:23:42;116;0;90.01;17;1.73;18.71;9.0;18.90;74093;5139.274;-12807.744;0;39;500;500.0;100.0;101.1;0;5.4;29.4;-1.0;
19/10/2023 19:24:02;116;0;89.96;17;1.73;18.71;9.1;18.90;74088;5139.274;-12807.744;0;39;500;498.4;100.0;101.1;0;5.4;29.4;-1.0;
19/10/2023 19:24:22;116;0;89.91;17;1.72;18.71;9.1;18.80;74085;5139.274;-12807.743;0;39;500;500.0;100.0;101.1;0;5.4;29.3;-1.0;
19/10/2023 19:24:42;116;0;90.94;17;1.73;18.72;9.1;18.90;74096;5139.274;-12807.743;0;39;500;500.0;100.0;101.1;0;5.4;29.3;-1.0;
19/10/2023 19:25:02;116;0;89.99;17;1.74;18.72;9.0;18.80;74085;5139.274;-12807.743;0;39;500;498.4;100.0;101.1;0;5.4;29.3;-1.0;
19/10/2023 19:25:22;116;0;89.99;17;1.71;18.72;9.1;18.80;74091;5139.274;-12807.743;0;39;500;500.0;100.0;101.2;0;5.4;29.3;-1.0;
19/10/2023 19:25:42;116;0;90.54;17;1.72;18.70;9.1;18.90;74090;5139.274;-12807.743;0;39;500;498.4;100.0;101.1;0;5.4;29.3;-1.0;
19/10/2023 19:26:02;116;0;89.97;17;1.72;18.71;9.0;18.80;74085;5139.274;-12807.743;0;39;500;501.6;100.0;101.1;0;5.4;29.3;-1.0;
19/10/2023 19:26:22;116;0;89.98;17;1.71;18.71;9.1;18.90;74085;5139.273;-12807.742;0;39;500;500.0;100.0;101.2;0;5.4;29.4;-1.0;
19/10/2023 19:26:59;116;0;90.31;17;1.73;18.73;9.0;18.90;74095;5139.273;-12807.742;0;39;500;500.0;100.0;101.1;0;5.4;29.3;-1.0;
19/10/2023 19:27:19;116;0;89.89;17;1.73;18.71;9.1;18.90;74086;5139.273;-12807.742;0;39;500;498.4;100.0;101.1;0;5.4;29.3;-1.0;
19/10/2023 19:27:39;116;0;89.97;17;1.73;18.71;9.0;18.90;74092;5139.273;-12807.742;0;39;500;500.0;100.0;100.9;0;5.4;29.3;-1.0;
19/10/2023 19:27:59;116;0;90.05;17;1.73;18.71;9.1;18.90;74086;5139.273;-12807.742;0;39;500;500.0;100.0;101.1;0;5.4;29.3;-1.0;
19/10/2023 19:28:19;116;0;90.03;17;1.72;18.71;9.2;18.90;74090;5139.273;-12807.742;0;39;500;498.4;100.0;101.1;0;5.4;29.3;-1.0;
19/10/2023 19:28:39;116;0;89.89;17;1.73;18.70;9.1;18.90;74098;5139.273;-12807.742;0;39;500;500.0;100.0;101.1;0;5.4;29.3;-1.0;
19/10/2023 19:28:59;116;0;90.03;17;1.74;18.71;9.1;18.90;74106;5139.273;-12807.742;0;39;500;500.0;100.0;101.1;0;5.4;29.3;-1.0;
19/10/2023 19:29:19;116;0;89.99;17;1.72;18.72;9.2;18.90;74095;5139.273;-12807.742;0;39;500;500.0;100.0;101.1;0;5.4;29.4;-1.0;
19/10/2023 19:29:39;116;0;89.86;17;1.73;18.73;9.1;19.00;74099;5139.273;-12807.742;0;39;500;500.0;100.0;101.1;0;5.4;29.3;-1.0;
19/10/2023 19:29:59;116;0;89.95;17;1.73;18.72;9.2;19.00;74102;5139.273;-12807.742;0;39;500;500.0;100.0;101.1;0;5.4;29.3;-1.0;
19/10/2023 19:30:19;116;0;90.06;17;1.70;18.73;9.1;19.00;74112;5139.273;-12807.742;0;39;500;500.0;100.0;101.2;0;5.4;29.3;-1.0;
19/10/2023 19:30:56;116;0;90.42;17;1.72;18.71;9.1;19.00;74109;5139.273;-12807.742;0;39;500;500.0;100.0;101.1;0;5.4;29.3;-1.0;
19/10/2023 19:31:16;116;0;90.29;17;1.72;18.71;9.2;19.00;74105;5139.273;-12807.742;0;39;500;500.0;100.0;101.1;0;5.4;29.3;-1.0;
19/10/2023 19:31:36;116;0;90.11;17;1.70;18.72;9.2;19.00;74110;5139.273;-12807.741;0;39;500;500.0;100.0;101.1;0;5.4;29.3;-1.0;
19/10/2023 19:31:56;116;0;90.20;17;1.70;18.72;9.1;19.00;74103;5139.273;-12807.741;0;39;500;500.0;100.0;100.9;0;5.4;29.3;-1.0;
19/10/2023 19:32:16;116;0;90.01;17;1.72;18.72;9.1;19.00;74103;5139.273;-12807.741;0;39;500;500.0;100.0;101.1;0;5.4;29.3;-1.0;
19/10/2023 19:32:36;116;0;90.00;17;1.72;18.71;9.2;19.10;74108;5139.273;-12807.741;0;39;500;500.0;100.0;101.1;0;5.4;29.3;-1.0;
19/10/2023 19:32:56;116;0;90.28;17;1.71;18.76;9.2;19.10;74116;5139.273;-12807.741;0;39;500;500.0;100.0;101.1;0;5.4;29.3;-1.0;
19/10/2023 19:33:16;116;0;90.05;17;1.71;18.71;9.1;19.10;74102;5139.273;-12807.741;0;39;500;500.0;100.0;101.1;0;5.4;29.3;-1.0;
19/10/2023 19:33:36;116;0;90.13;17;1.73;18.72;9.1;19.10;74120;5139.273;-12807.741;0;39;500;500.0;100.0;101.1;0;5.4;29.3;-1.0;
19/10/2023 19:33:56;116;0;90.43;17;1.73;18.65;9.2;19.10;74112;5139.273;-12807.741;0;39;500;498.4;100.0;101.1;0;5.4;29.4;-1.0;
19/10/2023 19:34:16;116;0;90.00;17;1.72;18.74;9.2;19.10;74109;5139.273;-12807.741;0;39;500;498.4;100.0;101.1;0;5.4;29.3;-1.0;
19/10/2023 19:34:36;116;0;90.02;17;1.70;18.72;9.2;19.10;74109;5139.273;-12807.741;0;39;500;500.0;100.0;101.1;0;5.4;29.3;-1.0;
19/10/2023 19:34:56;116;0;90.03;17;1.72;18.74;9.2;19.10;74113;5139.273;-12807.741;0;39;500;500.0;100.0;101.1;0;5.4;29.3;-1.0;
19/10/2023 19:35:16;116;0;89.96;17;1.73;18.71;9.1;19.10;74118;5139.273;-12807.741;0;39;500;500.0;100.0;101.1;0;5.4;29.3;-1.0;
19/10/2023 19:35:53;116;0;90.64;17;1.71;18.71;9.1;19.10;74110;5139.273;-12807.741;0;39;500;501.6;100.0;101.1;0;5.4;29.3;-1.0;
19/10/2023 19:36:13;116;0;89.93;17;1.72;18.73;9.1;19.10;74110;5139.273;-12807.741;0;39;500;500.0;100.0;101.1;0;5.4;29.3;-1.0;
19/10/2023 19:36:33;116;0;90.05;17;1.68;18.70;9.2;19.10;74116;5139.273;-12807.741;0;39;500;498.4;100.0;101.1;0;5.4;29.3;-1.0;
19/10/2023 19:36:53;116;0;89.98;17;1.72;18.72;9.2;19.10;74116;5139.273;-12807.741;0;39;500;500.0;100.0;101.1;0;5.4;29.3;-1.0;
19/10/2023 19:37:13;116;0;90.18;17;1.73;18.72;9.2;19.10;74114;5139.273;-12807.741;0;39;500;500.0;100.0;101.1;0;5.4;29.3;-1.0;
19/10/2023 19:37:33;116;0;89.93;17;1.71;18.72;9.2;19.10;74117;5139.273;-12807.741;0;39;500;498.4;100.0;101.1;0;5.4;29.3;-1.0;
19/10/2023 19:37:53;116;0;89.97;17;1.69;18.80;9.2;19.00;74112;5139.273;-12807.741;0;39;500;501.6;100.0;100.9;0;5.4;29.3;-1.0;
19/10/2023 19:38:13;116;0;71.50;17;-5.70;16.31;9.2;19.10;74108;5139.273;-12807.744;0;39;500;501.6;100.0;101.1;0;5.4;29.3;-1.0;
19/10/2023 19:38:33;116;0;332.03;17;-3.97;11.97;9.2;19.10;74113;5139.272;-12807.744;0;39;500;500.0;100.0;101.1;0;5.9;29.3;-1.0;
19/10/2023 19:38:53;116;0;192.66;17;2.92;22.94;9.1;19.10;74105;5139.271;-12807.745;0;39;500;500.0;100.0;101.1;0;6.3;29.3;-1.0;
19/10/2023 19:39:13;116;0;195.74;17;1.42;18.78;9.2;19.10;74110;5139.271;-12807.744;0;39;500;500.0;100.0;101.1;0;6.3;29.3;-1.0;
19/10/2023 19:39:33;116;0;194.78;17;2.97;23.98;9.2;19.10;74110;5139.271;-12807.744;0;39;500;500.0;100.0;101.1;0;6.3;29.3;-1.0;
19/10/2023 19:39:53;116;0;194.74;17;3.80;24.36;9.1;19.00;74106;5139.271;-12807.744;0;39;500;500.0;100.0;101.1;0;6.3;29.3;-1.0;
19/10/2023 19:40:13;116;0;220.02;17;3.93;24.54;9.1;19.00;74115;5139.271;-12807.744;0;39;500;500.0;100.0;101.1;0;6.3;29.3;-1.0;
19/10/2023 19:40:33;116;0;198.03;17;4.38;24.54;9.2;19.00;74108;5139.269;-12807.730;0;39;500;500.0;100.0;101.1;0;6.3;29.3;-1.0;
19/10/2023 19:41:10;116;0;205.90;17;4.66;24.31;9.1;19.00;74117;5139.263;-12807.700;0;39;500;501.6;100.0;101.1;0;6.3;29.3;-1.0;
19/10/2023 19:41:31;116;0;175.26;17;3.94;24.96;9.2;19.00;74109;5139.263;-12807.690;0;39;500;500.0;100.0;101.1;0;6.3;29.3;-1.0;
19/10/2023 19:41:51;116;0;183.99;17;3.29;24.40;9.2;19.00;74107;5139.264;-12807.653;0;39;500;498.4;100.0;101.1;0;6.3;29.3;-1.0;
19/10/2023 19:42:11;116;0;188.58;17;3.15;24.42;9.1;19.00;74105;5139.261;-12807.613;0;39;500;500.0;100.0;101.2;0;6.3;29.3;-1.0;
19/10/2023 19:42:31;116;0;178.27;17;3.18;24.66;9.1;18.90;74106;5139.259;-12807.573;0;39;500;500.0;100.0;101.1;0;6.3;29.3;-1.0;
19/10/2023 19:42:51;116;0;179.41;17;2.12;24.10;9.1;18.90;74106;5139.258;-12807.533;0;39;500;501.6;100.0;101.1;0;6.3;29.3;-1.0;
19/10/2023 19:43:11;116;0;172.35;17;2.94;27.98;9.2;18.90;74100;5139.263;-12807.487;0;39;500;500.0;100.0;101.1;0;6.3;29.4;-1.0;
19/10/2023 19:43:31;116;0;179.67;17;3.24;29.13;9.1;18.90;74101;5139.259;-12807.354;0;39;500;500.0;100.0;100.9;0;6.3;29.3;-1.0;
19/10/2023 19:43:51;116;0;183.44;17;3.82;26.95;9.0;18.90;74093;5139.248;-12807.129;0;39;500;500.0;100.0;100.9;0;6.3;29.3;-1.0;
19/10/2023 19:44:11;116;0;178.90;17;1.84;27.81;9.1;18.90;74080;5139.241;-12806.898;0;39;500;500.0;100.0;101.1;0;6.8;29.3;-1.0;
19/10/2023 19:44:31;116;0;182.76;17;2.20;26.74;9.0;18.90;74066;5139.228;-12806.231;0;39;500;498.4;100.0;101.1;0;6.3;29.3;-1.0;
19/10/2023 19:45:08;116;0;179.66;17;2.49;27.13;8.9;18.90;74054;5139.225;-12806.036;0;39;500;500.0;100.0;101.1;0;6.3;29.3;-1.0;
19/10/2023 19:45:28;116;0;138.11;17;2.18;27.31;8.9;18.90;74042;5139.255;-12805.923;0;39;500;500.0;100.0;100.9;0;6.3;29.3;-1.0;
19/10/2023 19:45:48;116;0;126.39;17;3.37;26.56;8.8;18.80;74020;5139.391;-12805.786;0;31;500;500.0;100.0;101.1;0;6.3;29.3;-1.0;
19/10/2023 19:46:08;116;0;103.01;17;2.71;28.28;8.7;18.80;74012;5139.541;-12805.691;0;31;500;500.0;100.0;101.1;0;5.9;29.3;-1.0;
19/10/2023 19:46:28;116;0;113.61;17;1.22;28.09;8.7;18.80;74009;5139.687;-12805.588;0;31;500;500.0;100.0;101.1;0;6.3;29.3;-1.0;
19/10/2023 19:46:48;116;0;118.96;17;2.77;26.97;8.6;18.80;73994;5139.812;-12805.424;0;31;500;500.0;100.0;100.9;0;6.3;29.3;-1.0;
19/10/2023 19:47:08;116;0;109.21;17;2.67;27.69;8.6;18.80;73985;5139.954;-12805.299;0;31;500;500.0;100.0;101.1;0;6.3;29.3;-1.0;
19/10/2023 19:47:28;116;0;99.14;17;1.91;27.76;8.6;18.80;73976;5140.108;-12805.226;0;31;500;501.6;100.0;101.1;0;6.3;29.3;-1.0;
19/10/2023 19:47:48;116;0;98.93;17;2.46;27.28;8.5;18.80;73967;5140.261;-12805.155;0;31;500;500.0;100.0;101.1;0;6.3;29.3;-1.0;
19/10/2023 19:48:08;116;0;98.22;17;3.36;27.56;8.4;18.70;73959;5140.413;-12805.081;0;31;500;498.4;100.0;101.1;0;6.3;29.3;-1.0;
19/10/2023 19:48:28;116;0;99.45;17;3.42;28.74;8.3;18.70;73940;5140.566;-12805.009;0;31;500;500.0;100.0;101.1;0;6.3;29.3;-1.0;
19/10/2023 19:48:48;116;0;94.45;17;1.39;26.23;8.3;18.70;73940;5140.731;-12804.967;0;31;500;500.0;100.0;101.1;0;6.3;29.3;-1.0;
19/10/2023 19:49:08;116;0;84.90;17;0.89;28.42;8.2;18.70;73925;5140.880;-12804.971;0;31;500;500.0;100.0;101.1;0;6.3;29.3;-1.0;
19/10/2023 19:49:28;116;0;92.11;17;-0.36;26.84;8.2;18.70;73922;5141.037;-12804.969;0;31;500;500.0;100.0;100.9;0;6.3;29.3;-1.0;
19/10/2023 19:49:48;116;0;96.91;17;0.71;32.42;8.1;18.60;73907;5141.197;-12804.924;0;31;500;498.4;100.0;101.1;0;6.3;29.3;-1.0;
19/10/2023 19:50:08;116;0;120.95;17;0.28;25.65;8.1;18.60;73907;5141.331;-12804.818;0;31;500;498.4;100.0;100.9;0;6.3;29.3;-1.0;
19/10/2023 19:50:28;116;0;115.35;17;2.96;27.56;8.0;18.60;73900;5141.458;-12804.667;0;31;500;501.6;100.0;101.1;0;6.3;29.3;-1.0;
19/10/2023 19:50:48;116;0;119.40;17;1.87;28.59;8.0;18.50;73889;5141.765;-12804.227;0;31;500;500.0;100.0;100.9;0;6.3;29.3;-1.0;
19/10/2023 19:51:25;116;0;114.03;17;2.00;30.00;8.0;18.50;73876;5141.944;-12804.139;0;31;500;501.6;100.0;100.9;0;6.3;29.3;-1.0;
19/10/2023 19:51:49;116;0;90.23;17;-1.46;26.42;7.9;18.40;73869;5141.983;-12804.136;0;31;500;500.0;100.0;100.9;0;6.3;29.3;-1.0;
19/10/2023 19:52:09;116;0;84.87;17;0.21;26.92;7.9;18.40;73854;5142.139;-12804.134;0;31;500;500.0;100.0;100.9;0;7.2;29.3;-1.0;
19/10/2023 19:52:29;116;0;98.21;17;0.85;27.41;7.9;18.40;73852;5142.290;-12804.117;0;38;500;500.0;100.0;100.0;0;8.6;29.2;-1.0;
19/10/2023 19:52:49;116;0;89.40;17;8.41;29.11;7.9;18.30;73845;5142.434;-12804.093;0;38;500;500.0;100.0;100.8;0;10.4;29.3;-1.0;
19/10/2023 19:53:09;116;0;77.73;17;4.00;15.79;7.8;18.30;73850;5142.577;-12804.040;0;38;500;500.0;100.0;100.0;0;10.8;29.3;-1.0;
19/10/2023 19:53:29;116;0;102.28;17;3.99;29.81;7.8;18.30;73842;5142.710;-12803.944;0;44;500;501.6;100.0;100.2;0;11.7;29.3;-1.0;
19/10/2023 19:53:49;116;0;131.12;17;10.94;27.77;7.7;18.30;73832;5142.818;-12803.784;0;44;500;498.4;100.0;100.8;0;12.2;29.3;-1.0;
19/10/2023 19:54:09;116;0;144.44;17;-0.46;24.48;7.8;18.20;73817;5142.908;-12803.595;0;44;500;500.0;100.0;100.8;0;12.6;29.3;-1.0;
19/10/2023 19:54:29;116;256;156.63;17;-2.47;25.96;7.8;18.20;73821;5142.975;-12803.403;0;44;500;498.4;100.0;100.6;0;13.1;29.3;-1.0;
19/10/2023 19:54:49;116;256;137.79;17;4.08;26.17;7.8;18.20;73817;5143.059;-12803.213;0;44;500;498.4;100.0;100.2;0;13.5;29.3;-1.0;
19/10/2023 19:55:09;116;256;121.37;17;4.41;28.53;7.8;18.20;73811;5143.143;-12803.022;0;44;500;500.0;100.0;100.2;0;13.5;29.3;-1.0;
19/10/2023 19:55:29;116;256;142.37;17;5.80;24.01;7.8;18.20;73811;5143.219;-12802.825;0;44;500;500.0;100.0;100.2;0;14.0;29.3;-1.0;
19/10/2023 19:55:49;116;256;152.78;17;0.48;19.99;7.7;18.10;73801;5143.304;-12802.650;0;44;500;498.4;100.0;100.2;0;14.4;29.3;-1.0;
19/10/2023 19:56:09;116;256;147.84;17;0.19;24.10;7.7;18.10;73802;5143.388;-12802.460;0;44;500;500.0;100.0;100.0;0;14.9;29.3;-1.0;
19/10/2023 19:56:29;116;256;123.32;17;4.09;27.22;7.8;18.10;73788;5143.622;-12801.961;0;44;500;500.0;100.0;100.2;0;14.9;29.3;-1.0;
19/10/2023 19:57:06;116;256;155.82;17;2.37;21.85;7.7;18.00;73776;5143.653;-12801.871;0;44;500;500.0;100.0;100.2;0;15.3;29.3;-1.0;
19/10/2023 19:57:26;116;256;147.21;17;2.25;23.40;7.7;18.00;73771;5143.813;-12801.479;0;44;500;500.0;100.0;100.3;0;15.8;29.3;-1.0;
19/10/2023 19:57:55;116;256;149.16;17;1.87;27.17;7.7;18.00;73766;5143.883;-12801.294;0;44;500;500.0;100.0;100.0;0;15.8;29.3;-1.0;
19/10/2023 19:58:15;116;256;140.42;17;4.56;25.41;7.7;18.00;73775;5143.901;-12801.250;0;44;500;501.6;100.0;100.2;0;15.8;29.3;-1.0;
19/10/2023 19:58:35;116;256;144.15;17;0.32;25.97;7.7;18.00;73763;5143.959;-12801.056;0;44;500;500.0;100.0;100.2;0;15.8;29.3;-1.0;
19/10/2023 19:58:55;116;256;160.59;17;1.29;20.33;7.7;18.00;73763;5144.024;-12800.855;0;19;500;500.0;100.0;100.0;0;15.8;29.3;-1.0;
19/10/2023 19:59:15;116;256;150.73;17;3.31;24.97;7.6;17.90;73747;5144.089;-12800.653;0;19;500;498.4;100.0;100.0;0;15.8;29.3;-1.0;
19/10/2023 19:59:35;116;256;150.11;17;3.98;19.02;7.7;17.90;73758;5144.162;-12800.448;0;340;500;498.4;100.0;100.0;0;15.8;29.3;-1.0;
19/10/2023 19:59:55;116;256;135.52;17;0.93;32.87;7.6;17.90;73752;5144.235;-12800.256;0;340;500;500.0;100.0;100.0;0;15.8;29.3;-1.0;
19/10/2023 20:00:15;116;256;167.91;17;3.50;17.50;7.6;17.90;73749;5144.300;-12800.058;0;340;500;498.4;100.0;100.2;0;15.8;29.3;-1.0;
19/10/2023 20:00:35;116;256;156.99;17;-0.13;22.30;7.6;17.90;73728;5144.371;-12759.857;0;281;500;500.0;100.0;100.0;0;15.8;29.3;-1.0;
19/10/2023 20:00:55;116;256;138.21;17;2.20;29.88;7.7;17.90;73741;5144.446;-12759.652;0;281;500;500.0;100.0;100.0;0;15.8;29.3;-1.0;
19/10/2023 20:01:15;116;256;140.75;17;4.80;23.78;7.7;17.90;73733;5144.520;-12759.442;0;281;500;500.0;100.0;100.0;0;15.8;29.3;-1.0;
19/10/2023 20:01:35;116;256;145.99;17;1.51;27.68;7.6;17.80;73733;5144.591;-12759.229;0;262;500;500.0;100.0;100.2;0;15.8;29.3;-1.0;
19/10/2023 20:01:55;116;256;139.80;17;3.80;26.07;7.5;17.80;73725;5144.667;-12759.002;0;262;500;500.0;100.0;100.2;0;16.2;29.3;-1.0;
19/10/2023 20:02:15;116;256;160.86;17;-0.52;20.47;7.6;17.80;73732;5144.738;-12758.781;0;262;500;500.0;100.0;100.0;0;15.8;29.3;-1.0;
19/10/2023 20:02:35;116;256;140.52;17;1.87;28.01;7.6;17.80;73727;5144.810;-12758.550;0;255;500;500.0;100.0;100.0;0;15.8;29.3;-1.0;
19/10/2023 20:02:55;116;256;142.22;17;2.59;24.91;7.6;17.80;73724;5144.893;-12758.329;0;255;500;500.0;100.0;100.2;0;16.2;29.3;-1.0;
19/10/2023 20:03:15;116;256;153.86;17;3.29;17.49;7.6;17.80;73714;5144.976;-12758.105;0;255;500;500.0;100.0;100.0;0;16.2;29.3;-1.0;
19/10/2023 20:03:35;116;256;149.87;17;2.04;21.19;7.6;17.80;73715;5145.054;-12757.893;0;255;500;498.4;100.0;100.0;0;15.8;29.3;-1.0;
19/10/2023 20:03:55;116;256;165.31;17;1.71;16.61;7.5;17.70;73710;5145.131;-12757.682;0;255;500;501.6;100.0;100.2;0;16.2;29.3;-1.0;
19/10/2023 20:04:15;116;256;143.64;17;1.98;24.33;7.6;17.70;73697;5145.212;-12757.479;0;249;500;498.4;100.0;100.0;0;16.2;29.3;-1.0;
19/10/2023 20:04:35;116;256;146.15;17;2.26;22.72;7.6;17.70;73703;5145.292;-12757.272;0;249;500;498.4;100.0;100.0;0;16.2;29.3;-1.0;
19/10/2023 20:04:55;116;256;133.65;17;3.74;27.39;7.6;17.70;73703;5145.366;-12757.062;0;249;500;500.0;100.0;100.2;0;16.2;29.3;-1.0;
19/10/2023 20:05:15;116;256;136.07;17;3.44;25.70;7.6;17.70;73698;5145.443;-12756.852;0;249;500;500.0;100.0;100.0;0;16.2;29.3;-1.0;
19/10/2023 20:05:35;116;256;169.91;17;3.67;14.44;7.5;17.70;73691;5145.526;-12756.649;0;249;500;500.0;100.0;100.0;0;16.2;29.3;-1.0;
19/10/2023 20:05:55;116;256;143.93;17;4.46;21.06;7.5;17.70;73696;5145.541;-12756.612;0;249;500;500.0;100.0;100.0;0;16.2;29.3;-1.0;
19/10/2023 20:06:15;116;256;140.29;17;5.89;20.02;7.5;17.70;73696;5145.542;-12756.610;0;249;500;500.0;100.0;100.0;0;16.2;29.3;-1.0;
19/10/2023 20:06:35;116;256;139.14;17;5.03;19.23;7.5;17.70;73702;5145.542;-12756.608;0;249;500;500.0;100.0;100.2;0;16.2;29.3;-1.0;
19/10/2023 20:06:55;116;256;140.40;17;2.36;20.50;7.5;17.70;73691;5145.542;-12756.606;0;249;500;500.0;100.0;100.0;0;16.2;29.3;-1.0;
19/10/2023 20:07:15;116;256;145.05;17;5.53;19.74;7.6;17.70;73697;5145.544;-12756.604;0;249;500;500.0;100.0;100.0;0;16.2;29.3;-1.0;
19/10/2023 20:07:35;116;256;141.89;17;4.97;19.05;7.5;17.60;73682;5145.544;-12756.601;0;249;500;500.0;100.0;100.0;0;16.2;29.3;-1.0;
19/10/2023 20:07:55;116;256;139.31;17;3.24;9.78;7.5;17.70;73692;5145.545;-12756.599;0;249;500;500.0;100.0;100.2;0;16.2;29.3;-1.0;
19/10/2023 20:08:15;116;256;137.61;17;2.10;10.06;7.5;17.60;73687;5145.546;-12756.598;0;249;500;500.0;100.0;100.2;0;16.2;29.3;-1.0;
19/10/2023 20:08:35;116;256;139.36;17;-3.60;11.18;7.6;17.60;73690;5145.547;-12756.595;0;249;500;503.2;100.0;100.2;0;16.2;29.3;-1.0;
19/10/2023 20:08:55;116;256;139.63;17;0.04;8.77;7.6;17.60;73687;5145.549;-12756.589;0;249;500;498.4;100.0;100.2;0;15.8;29.3;-1.0;
19/10/2023 20:09:32;116;256;131.82;17;2.12;3.16;7.6;17.60;73694;5145.550;-12756.587;0;249;500;498.4;100.0;100.2;0;15.8;29.3;-1.0;
19/10/2023 20:09:52;116;256;123.58;17;-6.44;5.75;7.6;17.60;73694;5145.551;-12756.581;0;249;500;498.4;100.0;100.3;0;15.8;29.3;-1.0;
19/10/2023 20:10:12;116;2304;181.20;17;-66.52;0.54;17.2;17.60;73612;5145.551;-12756.581;0;249;500;498.4;100.0;101.2;0;15.3;29.3;-1.0;
19/10/2023 20:10:32;116;2304;57.49;17;-61.93;100.78;7.8;17.60;73570;5145.551;-12756.581;0;249;500;500.0;100.0;101.1;0;15.3;29.3;-1.0;
19/10/2023 20:10:52;116;2304;358.85;17;-48.05;-2.56;7.8;17.60;73537;5145.584;-12756.495;0;249;500;500.0;100.0;101.4;0;15.3;29.3;-1.0;
19/10/2023 20:11:12;116;2304;276.75;17;-46.84;5.11;7.6;17.50;73523;5145.585;-12756.492;0;249;500;500.0;100.0;101.2;0;15.8;29.3;-1.0;
19/10/2023 20:11:32;116;2304;264.99;17;-48.82;8.40;7.5;17.50;73504;5145.586;-12756.489;0;249;500;498.4;100.0;101.2;0;15.3;29.3;-1.0;
19/10/2023 20:11:52;116;2304;265.04;17;-52.16;4.58;7.4;17.40;73494;5145.587;-12756.485;0;249;500;500.0;100.0;101.2;0;15.8;29.3;-1.0;
19/10/2023 20:12:12;116;2304;262.89;17;-56.27;3.46;7.5;17.40;73492;5145.588;-12756.482;0;249;500;498.4;100.0;101.4;0;15.3;29.3;-1.0;
19/10/2023 20:12:32;116;2304;259.86;17;-50.54;6.46;7.4;17.40;73480;5145.590;-12756.479;0;249;500;500.0;100.0;101.4;0;15.3;29.3;-1.0;
19/10/2023 20:12:52;116;2304;249.65;17;-53.69;4.50;7.4;17.30;73469;5145.590;-12756.477;0;249;500;501.6;100.0;101.2;0;15.3;29.3;-1.0;
19/10/2023 20:13:12;116;2304;244.26;17;-54.42;9.08;7.4;17.30;73462;5145.593;-12756.469;0;249;500;500.0;100.0;101.2;0;15.8;29.3;-1.0;
19/10/2023 20:13:49;116;2304;254.62;17;-48.85;5.54;7.4;17.20;73462;5145.595;-12756.466;0;249;500;498.4;100.0;101.4;0;15.3;29.3;-1.0;
19/10/2023 20:14:09;116;2304;258.98;17;-52.67;5.74;7.3;17.10;73445;5145.595;-12756.464;0;249;500;500.0;100.0;101.2;0;15.3;29.3;-1.0;
19/10/2023 20:14:29;116;2304;250.70;17;-56.56;3.49;7.5;17.10;73440;5145.596;-12756.462;0;249;500;500.0;100.0;101.4;0;15.3;29.3;-1.0;
19/10/2023 20:14:49;116;2304;248.91;17;-50.72;4.43;7.4;17.10;73439;5145.597;-12756.460;0;249;500;501.6;100.0;101.4;0;15.3;29.3;-1.0;
19/10/2023 20:15:09;116;2304;230.88;17;-54.07;6.80;7.4;17.00;73435;5145.598;-12756.457;0;249;500;498.4;100.0;101.2;0;15.8;29.3;-1.0;
19/10/2023 20:15:29;116;256;254.06;17;-51.59;5.11;7.4;17.00;73419;5145.599;-12756.454;0;249;500;500.0;100.0;101.2;0;15.3;29.3;-1.0;
19/10/2023 20:15:49;116;256;246.43;17;-53.02;8.52;7.4;17.00;73420;5145.601;-12756.452;0;249;500;500.0;100.0;101.2;0;15.3;29.3;-1.0;
19/10/2023 20:16:09;116;256;253.58;17;-50.31;7.18;7.4;16.90;73419;5145.602;-12756.450;0;249;500;500.0;100.0;101.4;0;15.3;29.3;-1.0;
19/10/2023 20:16:29;116;256;246.47;17;-50.71;5.09;7.4;16.90;73420;5145.602;-12756.447;0;249;500;498.4;100.0;101.2;0;15.8;29.3;-1.0;
19/10/2023 20:16:49;116;256;256.38;17;-48.08;1.42;7.4;16.90;73409;5145.603;-12756.445;0;249;500;500.0;100.0;101.2;0;15.3;29.3;-1.0;
19/10/2023 20:17:09;110;256;254.47;17;-50.68;4.05;-0.1;16.80;73404;5145.603;-12756.445;0;249;-500;474.2;100.0;101.2;0;15.3;29.3;-1.0;
19/10/2023 20:17:19;110;256;232.79;17;-54.00;4.85;-0.0;16.80;73694;5145.603;-12756.445;1;249;-500;337.1;100.0;101.2;0;15.8;29.2;-1.0;
19/10/2023 20:17:29;110;256;237.07;17;-59.06;7.17;0.1;16.80;73969;5145.603;-12756.446;1;249;-500;198.4;100.0;101.4;0;15.3;29.2;-1.0;
19/10/2023 20:17:39;110;256;248.33;17;-59.78;1.03;0.4;16.80;74255;5145.603;-12756.446;1;249;-500;61.3;100.0;101.2;0;15.3;29.2;-1.0;
19/10/2023 20:17:49;110;256;248.28;17;-68.95;3.70;0.9;16.80;74547;5145.603;-12756.446;1;249;-500;-90.3;95.1;95.2;0;-0.5;29.2;-1.0;
19/10/2023 20:17:59;110;256;242.58;17;-66.89;0.54;0.9;16.70;74887;5145.603;-12756.446;1;249;-500;-241.9;82.3;83.1;0;-0.5;29.2;-1.0;
19/10/2023 20:18:09;110;256;242.38;17;-62.14;-1.11;1.8;16.70;75237;5145.603;-12756.447;1;249;-500;-408.1;68.8;70.2;0;-0.5;29.2;-1.0;
19/10/2023 20:18:19;110;256;262.33;17;-55.12;-3.25;4.3;16.70;75483;5145.602;-12756.449;1;249;-500;-491.9;58.8;58.7;0;-0.5;29.2;-1.0;
19/10/2023 20:18:39;100;256;261.56;17;-51.43;-1.01;11.1;16.60;75452;5145.602;-12756.455;1;249;-500;-493.5;58.0;57.9;0;-0.5;29.3;-1.0;
19/10/2023 20:18:59;100;256;275.84;17;-51.19;-2.07;18.3;16.60;75444;5145.602;-12756.461;1;249;-500;-491.9;48.6;48.6;29;28.9;29.3;0.0;
19/10/2023 20:19:19;100;256;271.14;17;-43.84;10.77;23.0;16.50;75439;5145.602;-12756.465;1;249;-500;-491.9;41.5;41.5;21;20.8;29.3;0.0;
19/10/2023 20:19:38;118;256;266.34;17;-37.30;6.35;25.9;16.40;75425;5145.602;-12756.468;1;249;200;-491.9;50.0;49.9;0;-0.5;29.3;0.0;
19/10/2023 20:19:48;118;256;231.83;17;-47.57;-2.27;27.1;16.40;75352;5145.602;-12756.469;1;249;200;-446.8;50.0;50.2;0;0.0;29.3;-1.0;
19/10/2023 20:19:58;118;256;241.49;17;-51.17;0.92;28.3;16.40;75080;5145.601;-12756.470;1;249;200;-324.2;50.0;50.2;0;-0.5;29.1;-1.0;
19/10/2023 20:20:08;118;256;252.44;17;-46.58;-5.40;28.8;16.40;74823;5145.601;-12756.470;1;249;200;-198.4;50.0;50.2;0;0.0;29.1;-1.0;
19/10/2023 20:20:18;118;256;262.80;17;-47.31;-5.79;28.8;16.40;74576;5145.601;-12756.470;1;249;200;-75.8;50.0;50.2;0;-0.5;29.1;-1.0;
19/10/2023 20:20:28;118;256;278.83;17;-39.97;-3.29;28.1;16.30;74307;5145.601;-12756.471;1;249;200;46.8;50.0;50.2;0;-0.5;29.1;-1.0;
19/10/2023 20:20:38;118;256;276.95;17;-30.88;-2.39;26.5;16.30;74060;5145.602;-12756.473;1;249;200;171.0;50.0;50.2;0;-0.5;29.1;-1.0;
19/10/2023 20:20:48;118;256;276.41;17;-23.56;-2.58;24.8;16.30;73941;5145.602;-12756.476;1;249;200;206.5;50.0;50.2;0;0.0;29.1;-1.0;
19/10/2023 20:21:08;117;256;166.29;17;-30.19;0.56;20.1;16.20;73932;5145.598;-12756.474;1;249;200;206.5;42.0;42.1;0;0.0;29.3;-1.0;
19/10/2023 20:21:28;117;256;129.79;17;-21.75;-1.38;17.8;16.10;73922;5145.596;-12756.471;1;249;200;209.7;29.5;29.2;70;37.9;29.3;-1.0;
19/10/2023 20:21:48;117;256;163.76;17;-10.15;34.26;15.9;16.10;73930;5145.593;-12756.470;1;249;200;209.7;20.4;20.4;70;70.4;29.3;-1.0;
19/10/2023 20:22:08;117;256;193.70;17;8.53;34.54;14.1;15.90;73919;5145.590;-12756.471;1;249;200;209.7;17.0;16.9;66;65.4;29.3;-1.0;
19/10/2023 20:22:28;117;256;218.22;17;16.46;32.60;12.1;15.80;73903;5145.588;-12756.474;1;249;200;209.7;15.9;16.0;35;35.2;29.3;-1.0;
19/10/2023 20:22:48;117;256;231.85;17;30.29;15.99;8.9;15.70;73900;5145.586;-12756.477;1;249;200;212.9;19.0;19.2;12;12.2;29.3;-1.0;
19/10/2023 20:23:08;117;256;254.76;17;19.35;3.87;5.6;15.70;73901;5145.585;-12756.484;1;249;200;212.9;19.0;19.2;-1;-0.9;29.3;-1.0;
