Timestamp;NavState;SecurityLevel;Heading;Declination;Pitch;Roll;Depth;Temperature;Pa;Lat;Lon;DeadReckoning;DesiredH;BallastCmd;BallastPos;LinCmd;LinPos;AngCmd;AngPos;Voltage;Altitude;
19/10/2023 21:23:52;117;0;263.90;17;20.84;-3.32;4.2;12.50;72988;5145.629;-12756.775;1;249;500;501.6;19.3;19.2;-9;-9.0;29.3;-1.0;
19/10/2023 21:23:57;115;0;263.77;17;19.96;-5.45;2.9;12.50;72988;5145.629;-12756.778;1;249;500;501.6;100.0;31.5;0;0.9;29.3;-1.0;
19/10/2023 21:24:07;115;0;261.83;17;-8.14;-0.41;1.3;12.40;72972;5145.629;-12756.782;1;249;500;501.6;100.0;100.0;0;0.9;29.2;-1.0;
19/10/2023 21:24:17;115;0;277.22;17;-76.97;-9.25;2.5;12.40;72986;5145.629;-12756.783;1;249;500;503.2;100.0;100.3;0;0.9;29.3;-1.0;
19/10/2023 21:24:37;116;0;257.20;17;-30.33;0.40;-0.1;12.40;72981;5145.669;-12756.653;0;249;500;501.6;100.0;100.5;0;0.9;29.3;-1.0;
19/10/2023 21:25:07;116;0;254.04;17;-59.39;-4.55;0.0;12.40;72987;5145.669;-12756.653;0;249;500;501.6;100.0;100.3;0;0.9;29.3;-1.0;
19/10/2023 21:25:27;116;0;239.65;17;-59.60;-3.31;0.1;12.50;72991;5145.670;-12756.653;0;249;500;501.6;100.0;100.3;0;0.9;29.3;-1.0;
19/10/2023 21:25:47;116;0;231.23;17;-58.56;-0.91;0.2;12.50;72995;5145.670;-12756.654;0;239;500;501.6;100.0;100.5;0;0.9;29.3;-1.0;
19/10/2023 21:26:07;116;0;231.17;17;-57.31;-2.23;0.1;12.50;72998;5145.670;-12756.650;0;239;500;501.6;100.0;100.3;0;0.9;29.3;-1.0;
19/10/2023 21:26:43;116;0;225.76;17;-57.16;-0.19;0.1;12.60;73004;5145.670;-12756.649;0;239;500;501.6;100.0;100.3;0;0.9;29.3;-1.0;
19/10/2023 21:27:03;116;0;239.55;17;-58.26;0.48;0.1;12.70;73011;5145.672;-12756.651;0;239;500;501.6;100.0;100.5;0;0.9;29.3;-1.0;
19/10/2023 21:27:23;116;0;228.91;17;-58.02;0.14;0.2;12.80;73015;5145.671;-12756.651;0;239;500;501.6;100.0;100.3;0;0.9;29.3;-1.0;
19/10/2023 21:27:43;116;0;225.90;17;-53.04;-5.24;0.1;12.80;73014;5145.671;-12756.652;0;239;500;501.6;100.0;100.5;0;0.9;29.3;-1.0;
19/10/2023 21:28:03;116;0;241.07;17;-57.22;-1.39;0.1;12.90;73013;5145.671;-12756.651;0;239;500;501.6;100.0;100.5;0;0.9;29.3;-1.0;
19/10/2023 21:28:40;116;0;223.39;17;-55.94;-0.75;0.2;13.00;73017;5145.671;-12756.650;0;239;500;501.6;100.0;100.5;0;0.9;29.3;-1.0;
19/10/2023 21:29:00;116;0;207.61;17;-57.96;-2.39;0.1;13.10;73012;5145.671;-12756.649;0;239;500;501.6;100.0;100.5;0;0.9;29.3;-1.0;
19/10/2023 21:29:20;116;0;219.96;17;-52.79;-3.72;0.1;13.20;73024;5145.671;-12756.648;0;239;500;501.6;100.0;100.5;0;0.9;29.3;-1.0;
19/10/2023 21:29:40;116;0;218.69;17;-58.25;-1.64;0.1;13.30;73026;5145.671;-12756.648;0;239;500;501.6;100.0;100.5;0;0.9;29.3;-1.0;
19/10/2023 21:30:00;116;0;227.17;17;-55.15;-4.15;0.2;13.30;73023;5145.672;-12756.648;0;239;500;501.6;100.0;100.3;0;0.9;29.3;-1.0;
19/10/2023 21:30:20;110;0;228.09;17;-56.45;-3.73;-0.0;13.40;73025;5145.672;-12756.648;0;239;-450;477.4;100.0;100.5;0;0.9;29.3;-1.0;
19/10/2023 21:30:30;110;0;216.34;17;-57.35;-2.35;0.2;13.40;73315;5145.672;-12756.648;1;239;-450;343.5;100.0;100.3;0;0.9;29.2;-1.0;
19/10/2023 21:30:40;110;0;223.96;17;-59.59;-1.08;0.1;13.40;73582;5145.672;-12756.648;1;239;-450;206.5;100.0;100.5;0;0.9;29.2;-1.0;
19/10/2023 21:30:50;110;0;226.31;17;-64.72;-5.12;0.6;13.40;73874;5145.672;-12756.648;1;239;-450;62.9;100.0;100.5;0;0.9;29.2;-1.0;
19/10/2023 21:31:00;110;0;234.30;17;-70.84;-5.51;0.8;13.40;74174;5145.672;-12756.648;1;239;-450;-87.1;94.8;94.7;0;0.9;29.2;-1.0;
19/10/2023 21:31:10;110;0;234.09;17;-71.07;-10.36;0.9;13.50;74505;5145.672;-12756.648;1;239;-450;-237.1;80.8;82.3;0;0.9;29.2;-1.0;
19/10/2023 21:31:20;110;0;226.91;17;-63.06;-2.89;2.4;13.50;74847;5145.671;-12756.649;1;239;-450;-409.7;65.5;69.0;0;0.9;29.1;-1.0;
19/10/2023 21:31:30;110;0;246.39;17;-60.14;-3.17;6.0;13.50;75009;5145.670;-12756.652;1;239;-450;-451.6;58.0;57.8;0;0.9;29.1;-1.0;
19/10/2023 21:31:50;100;0;251.01;17;-52.63;-1.98;17.2;13.50;74994;5145.668;-12756.661;1;239;-450;-451.6;48.6;48.7;0;0.9;29.3;-1.0;
19/10/2023 21:32:10;100;0;273.84;17;-51.00;-2.08;29.6;13.50;74989;5145.669;-12756.671;1;239;-450;-451.6;38.7;38.6;41;38.8;29.3;0.0;
19/10/2023 21:32:30;100;0;271.83;17;-38.21;19.14;40.9;13.40;75013;5145.669;-12756.683;1;239;-450;-451.6;32.7;32.7;38;37.5;29.2;0.0;
19/10/2023 21:32:50;100;0;256.05;17;-20.04;16.44;47.5;13.40;75013;5145.667;-12756.697;1;239;-450;-453.2;32.1;31.9;13;13.1;29.3;0.0;
19/10/2023 21:33:10;100;0;244.90;17;-14.07;4.90;51.2;13.40;74983;5145.665;-12756.705;1;239;-450;-451.6;33.2;33.4;1;0.9;29.3;0.0;
19/10/2023 21:33:30;100;0;247.41;17;-14.93;-1.47;54.0;13.40;74949;5145.663;-12756.711;1;239;-450;-451.6;34.2;34.5;3;3.2;29.3;0.0;
19/10/2023 21:33:50;100;0;247.36;17;-16.17;0.66;57.0;13.30;74932;5145.661;-12756.718;1;239;-450;-451.6;34.7;34.8;3;3.6;29.3;0.0;
19/10/2023 21:34:10;100;0;251.12;17;-16.80;-0.11;60.2;13.30;74901;5145.660;-12756.724;1;239;-450;-450.0;35.1;35.4;6;5.9;29.3;0.0;
19/10/2023 21:34:30;100;0;252.27;17;-18.55;1.27;63.4;13.30;74880;5145.659;-12756.731;1;239;-450;-451.6;35.1;35.4;6;6.3;29.3;0.0;
19/10/2023 21:34:50;100;0;250.64;17;-18.20;1.33;66.8;13.20;74855;5145.657;-12756.738;1;239;-450;-451.6;35.1;35.4;6;6.8;29.3;0.0;
19/10/2023 21:35:10;100;0;244.96;17;-17.28;1.72;70.3;13.20;74845;5145.655;-12756.745;1;239;-450;-451.6;35.1;35.4;2;1.8;29.3;0.0;
19/10/2023 21:35:30;100;0;247.70;17;-18.01;-2.55;73.5;13.20;74838;5145.653;-12756.752;1;239;-450;-451.6;35.1;35.4;2;0.9;29.3;0.0;
19/10/2023 21:35:50;100;0;246.53;17;-18.38;-1.18;76.7;13.10;74806;5145.652;-12756.759;1;239;-450;-451.6;35.1;35.6;2;0.9;29.3;0.0;
19/10/2023 21:36:10;100;0;246.11;17;-18.08;-1.12;80.0;13.00;74785;5145.650;-12756.765;1;239;-450;-451.6;35.1;35.6;2;1.4;29.3;0.0;
19/10/2023 21:36:30;100;0;248.71;17;-18.40;-1.83;83.0;13.00;74785;5145.648;-12756.771;1;239;-450;-451.6;35.1;35.6;4;4.5;29.3;0.0;
19/10/2023 21:36:50;100;0;247.99;17;-18.53;0.98;86.3;13.00;74776;5145.647;-12756.778;1;239;-450;-451.6;35.1;35.6;4;5.0;29.3;0.0;
19/10/2023 21:37:10;100;0;253.61;17;-18.42;0.63;89.7;12.90;74749;5145.645;-12756.785;1;239;-450;-451.6;35.1;35.6;9;9.0;29.3;0.0;
19/10/2023 21:37:30;100;0;250.62;17;-17.95;2.84;93.0;12.80;74743;5145.644;-12756.792;1;239;-450;-451.6;35.1;35.6;6;5.9;29.3;0.0;
19/10/2023 21:37:50;100;0;254.06;17;-17.46;0.51;96.0;12.80;74739;5145.643;-12756.799;1;239;-450;-451.6;35.1;35.6;10;9.9;29.3;0.0;
19/10/2023 21:38:10;100;0;251.40;17;-16.98;3.10;98.8;12.70;74707;5145.641;-12756.805;1;239;-450;-451.6;35.4;35.2;7;6.8;29.3;0.0;
19/10/2023 21:38:30;100;0;250.29;17;-16.67;1.15;101.4;12.70;74692;5145.640;-12756.811;1;239;-450;-451.6;35.8;35.7;7;6.3;29.3;0.0;
19/10/2023 21:38:50;100;0;254.13;17;-17.97;0.94;104.0;12.60;74681;5145.639;-12756.816;1;239;-450;-451.6;35.8;35.9;10;9.9;29.3;0.0;
19/10/2023 21:39:10;100;0;256.78;17;-17.98;2.78;106.8;12.60;74637;5145.638;-12756.822;1;239;-450;-451.6;35.8;35.9;14;14.4;29.3;0.0;
19/10/2023 21:39:30;100;0;255.81;17;-17.76;5.20;109.8;12.50;74621;5145.637;-12756.829;1;239;-450;-451.6;35.8;36.0;14;14.9;29.3;0.0;
19/10/2023 21:39:50;100;0;247.67;17;-17.27;5.21;112.9;12.50;74601;5145.636;-12756.835;1;239;-450;-451.6;35.8;36.0;3;3.2;29.3;0.0;
19/10/2023 21:40:10;100;0;241.95;17;-17.72;-0.54;115.9;12.40;74588;5145.634;-12756.841;1;239;-450;-451.6;35.8;36.0;1;0.9;29.3;0.0;
19/10/2023 21:40:30;100;0;244.99;17;-17.06;-1.67;118.8;12.30;74573;5145.632;-12756.847;1;239;-450;-451.6;35.8;36.0;1;0.0;29.3;0.0;
19/10/2023 21:40:50;100;0;246.70;17;-16.90;-1.69;121.5;12.30;74560;5145.630;-12756.853;1;239;-450;-451.6;36.1;36.2;3;3.6;29.3;0.0;
19/10/2023 21:41:10;100;0;243.74;17;-17.43;0.25;124.0;12.20;74543;5145.629;-12756.858;1;239;-450;-453.2;36.1;36.2;3;3.6;29.3;0.0;
19/10/2023 21:41:30;100;0;242.70;17;-17.20;0.07;126.5;12.10;74539;5145.627;-12756.863;1;239;-450;-451.6;36.1;36.2;3;4.1;29.3;0.0;
19/10/2023 21:41:50;100;0;242.03;17;-17.02;0.04;129.0;12.10;74539;5145.625;-12756.868;1;239;-450;-453.2;36.1;36.2;3;4.1;29.3;0.0;
19/10/2023 21:42:10;100;0;239.77;17;-17.03;0.19;131.6;12.00;74523;5145.624;-12756.873;1;239;-450;-451.6;36.1;36.2;3;4.1;29.3;0.0;
19/10/2023 21:42:30;100;0;235.25;17;-17.27;0.18;134.4;12.00;74516;5145.621;-12756.878;1;239;-450;-451.6;36.1;36.2;1;0.9;29.3;0.0;
19/10/2023 21:42:50;100;0;236.74;17;-16.81;-1.58;137.1;11.90;74496;5145.619;-12756.884;1;239;-450;-451.6;36.5;36.5;1;0.5;29.3;0.0;
19/10/2023 21:43:10;100;0;233.52;17;-17.66;-1.58;140.2;11.90;74481;5145.617;-12756.889;1;239;-450;-451.6;36.5;36.6;1;0.5;29.3;0.0;
19/10/2023 21:43:30;100;0;235.58;17;-17.27;-1.48;143.3;11.80;74478;5145.614;-12756.895;1;239;-450;-451.6;36.5;36.6;1;0.5;29.3;0.0;
19/10/2023 21:43:50;100;0;236.70;17;-16.98;-1.35;146.5;11.80;74469;5145.612;-12756.901;1;239;-450;-451.6;36.8;36.8;1;0.5;29.3;0.0;
19/10/2023 21:44:10;100;0;235.94;17;-17.66;-1.15;149.5;11.70;74448;5145.609;-12756.907;1;239;-450;-451.6;36.8;36.9;1;0.5;29.3;0.0;
19/10/2023 21:44:30;100;0;236.09;17;-17.94;-1.69;152.6;11.70;74434;5145.607;-12756.912;1;239;-450;-451.6;36.8;37.1;1;0.5;29.3;0.0;
19/10/2023 21:44:50;100;0;243.03;17;-17.09;-1.58;155.6;11.60;74430;5145.605;-12756.919;1;239;-450;-451.6;36.8;37.1;1;0.5;29.3;0.0;
19/10/2023 21:45:10;100;0;243.55;17;-17.82;-1.51;158.7;11.60;74427;5145.603;-12756.925;1;239;-450;-451.6;36.8;36.9;1;0.5;29.3;0.0;
19/10/2023 21:45:30;100;0;240.95;17;-17.60;-1.53;161.6;11.50;74415;5145.601;-12756.930;1;239;-450;-451.6;36.8;37.1;1;0.5;29.3;0.0;
19/10/2023 21:45:50;100;0;245.81;17;-17.59;-1.17;164.5;11.40;74401;5145.600;-12756.936;1;239;-450;-451.6;36.8;36.9;3;3.6;29.3;0.0;
19/10/2023 21:46:10;100;0;246.18;17;-18.26;0.21;167.8;11.40;74403;5145.598;-12756.943;1;239;-450;-451.6;36.8;36.9;3;4.1;29.3;0.0;
19/10/2023 21:46:30;100;0;249.27;17;-17.58;0.19;171.1;11.30;74396;5145.596;-12756.950;1;239;-450;-451.6;36.8;37.1;5;5.0;29.3;0.0;
19/10/2023 21:46:50;100;0;241.49;17;-17.34;0.71;174.4;11.30;74388;5145.594;-12756.956;1;239;-450;-451.6;36.8;37.1;2;1.8;29.3;0.0;
19/10/2023 21:47:10;100;0;245.06;17;-17.94;-1.11;177.5;11.20;74390;5145.592;-12756.963;1;239;-450;-451.6;36.8;37.1;2;1.8;29.3;0.0;
19/10/2023 21:47:30;100;0;241.95;17;-17.62;-1.31;180.4;11.20;74379;5145.590;-12756.968;1;239;-450;-451.6;36.8;37.1;2;1.8;29.3;0.0;
19/10/2023 21:47:51;100;0;239.30;17;-17.29;-0.83;183.4;11.20;74370;5145.588;-12756.974;1;239;-450;-451.6;36.8;37.1;2;1.8;29.3;0.0;
19/10/2023 21:48:11;100;0;238.74;17;-16.59;-1.44;186.4;11.10;74367;5145.586;-12756.980;1;239;-450;-451.6;37.2;37.4;2;1.4;29.3;0.0;
19/10/2023 21:48:31;100;0;236.42;17;-18.39;-1.04;189.3;11.00;74358;5145.584;-12756.985;1;239;-450;-450.0;37.2;37.5;2;1.8;29.3;0.0;
19/10/2023 21:48:51;100;0;236.97;17;-18.48;-1.14;192.3;11.00;74355;5145.581;-12756.991;1;239;-450;-451.6;37.2;37.5;2;1.8;29.3;0.0;
19/10/2023 21:49:11;100;0;236.18;17;-18.20;-0.97;195.5;11.00;74346;5145.579;-12756.997;1;239;-450;-451.6;37.2;37.5;2;1.8;29.2;0.0;
19/10/2023 21:49:31;100;0;236.80;17;-18.22;-1.08;198.6;10.90;74343;5145.577;-12757.003;1;239;-450;-451.6;37.2;37.5;2;1.8;29.3;0.0;
19/10/2023 21:49:51;100;0;237.68;17;-18.03;-1.11;201.7;10.90;74339;5145.574;-12757.009;1;239;-450;-451.6;37.2;37.5;2;1.8;29.3;0.0;
19/10/2023 21:50:11;100;0;238.91;17;-17.96;-1.08;204.8;10.90;74339;5145.572;-12757.015;1;239;-450;-451.6;37.2;37.5;2;1.8;29.3;0.0;
19/10/2023 21:50:31;100;0;240.90;17;-17.88;-1.09;207.8;10.80;74331;5145.570;-12757.020;1;239;-450;-454.8;37.2;37.5;2;1.4;29.3;0.0;
19/10/2023 21:50:51;100;0;242.44;17;-18.05;-1.02;210.8;10.80;74332;5145.568;-12757.026;1;239;-450;-451.6;37.2;37.5;2;1.8;29.3;0.0;
19/10/2023 21:51:11;100;0;244.01;17;-17.88;-1.03;213.8;10.70;74328;5145.566;-12757.032;1;239;-450;-453.2;37.2;37.4;2;1.8;29.3;0.0;
19/10/2023 21:51:31;100;0;243.91;17;-17.65;-1.09;216.8;10.70;74320;5145.565;-12757.038;1;239;-450;-454.8;37.2;37.4;2;1.8;29.3;0.0;
19/10/2023 21:51:51;100;0;244.35;17;-17.87;-1.04;219.6;10.60;74314;5145.563;-12757.044;1;239;-450;-451.6;37.2;37.5;2;1.4;29.3;0.0;
19/10/2023 21:52:11;100;0;245.25;17;-18.02;-1.20;222.5;10.60;74316;5145.561;-12757.050;1;239;-450;-451.6;37.2;37.5;2;1.8;29.3;0.0;
19/10/2023 21:52:31;100;0;246.11;17;-18.05;-1.10;225.3;10.60;74306;5145.560;-12757.055;1;239;-450;-451.6;37.2;37.5;2;1.8;29.3;0.0;
19/10/2023 21:52:51;100;0;246.29;17;-18.00;-1.03;228.0;10.50;74314;5145.558;-12757.061;1;239;-450;-451.6;37.2;37.5;2;1.4;29.3;0.0;
19/10/2023 21:53:11;100;0;247.00;17;-17.85;-1.25;230.9;10.50;74302;5145.557;-12757.067;1;239;-450;-451.6;37.2;37.5;2;1.4;29.3;0.0;
19/10/2023 21:53:31;100;0;247.80;17;-17.77;-1.11;233.8;10.50;74296;5145.555;-12757.073;1;239;-450;-451.6;37.2;37.5;4;4.5;29.3;0.0;
19/10/2023 21:53:51;100;0;246.74;17;-17.77;0.53;236.7;10.40;74296;5145.554;-12757.079;1;239;-450;-451.6;37.2;37.5;4;5.0;29.3;0.0;
19/10/2023 21:54:11;100;0;245.79;17;-17.90;0.46;239.5;10.40;74292;5145.552;-12757.084;1;239;-450;-451.6;37.2;37.5;4;5.0;29.3;0.0;
19/10/2023 21:54:31;100;0;245.48;17;-17.84;0.41;242.2;10.30;74283;5145.550;-12757.090;1;239;-450;-451.6;37.2;37.5;4;5.0;29.3;0.0;
19/10/2023 21:54:51;100;0;244.81;17;-17.83;0.31;245.2;10.30;74269;5145.549;-12757.096;1;239;-450;-451.6;37.2;37.5;4;4.5;29.3;0.0;
19/10/2023 21:55:11;100;0;246.45;17;-17.94;0.23;247.9;10.30;74287;5145.547;-12757.101;1;239;-450;-454.8;37.2;37.5;4;4.5;29.3;0.0;
19/10/2023 21:55:31;100;0;245.53;17;-17.18;0.77;250.7;10.20;74287;5145.546;-12757.107;1;239;-450;-451.6;37.2;37.5;4;4.5;29.3;0.0;
19/10/2023 21:55:51;100;0;246.85;17;-17.90;0.39;253.6;10.20;74276;5145.544;-12757.113;1;239;-450;-451.6;37.2;37.5;4;4.5;29.3;0.0;
19/10/2023 21:56:11;100;0;245.76;17;-17.74;0.41;256.4;10.20;74280;5145.542;-12757.119;1;239;-450;-453.2;37.2;37.5;4;4.5;29.2;0.0;
19/10/2023 21:56:31;100;0;243.56;17;-17.64;0.42;259.2;10.20;74274;5145.541;-12757.124;1;239;-450;-451.6;37.2;37.5;2;1.4;29.3;0.0;
19/10/2023 21:56:51;100;0;244.06;17;-17.87;-1.26;262.1;10.10;74268;5145.539;-12757.130;1;239;-450;-451.6;37.2;37.5;2;1.4;29.3;0.0;
19/10/2023 21:57:11;100;0;243.89;17;-17.67;-1.24;265.1;10.10;74274;5145.537;-12757.136;1;239;-450;-451.6;37.2;37.5;2;1.4;29.3;0.0;
19/10/2023 21:57:31;100;0;245.20;17;-17.86;-1.31;268.0;10.10;74268;5145.536;-12757.142;1;239;-450;-454.8;37.2;37.5;2;0.9;29.3;0.0;
19/10/2023 21:57:51;100;0;246.94;17;-17.55;-1.31;270.9;10.00;74256;5145.534;-12757.148;1;239;-450;-451.6;37.2;37.5;4;4.5;29.3;0.0;
19/10/2023 21:58:11;100;0;246.95;17;-17.75;0.45;273.9;10.00;74263;5145.532;-12757.154;1;239;-450;-451.6;37.2;37.7;4;5.0;29.3;0.0;
19/10/2023 21:58:31;100;0;246.69;17;-17.71;0.40;276.7;10.00;74254;5145.531;-12757.160;1;239;-450;-450.0;37.2;37.5;4;4.5;29.3;0.0;
19/10/2023 21:58:51;100;0;246.34;17;-17.78;0.38;279.7;10.00;74258;5145.529;-12757.166;1;239;-450;-451.6;37.2;37.5;4;5.0;29.3;0.0;
19/10/2023 21:59:11;100;0;246.21;17;-17.66;0.38;282.6;9.90;74245;5145.528;-12757.172;1;239;-450;-451.6;37.2;37.7;4;5.0;29.3;0.0;
19/10/2023 21:59:31;100;0;245.81;17;-17.68;0.45;285.4;9.90;74254;5145.526;-12757.177;1;239;-450;-451.6;37.2;37.7;4;5.0;29.3;0.0;
19/10/2023 21:59:51;100;0;245.42;17;-17.71;0.49;288.3;9.90;74255;5145.524;-12757.183;1;239;-450;-451.6;37.2;37.5;4;4.5;29.3;0.0;
19/10/2023 22:00:11;100;0;244.35;17;-17.70;0.37;291.2;9.90;74257;5145.523;-12757.189;1;239;-450;-451.6;37.2;37.5;4;4.5;29.3;0.0;
19/10/2023 22:00:31;100;0;243.30;17;-17.55;0.43;294.1;9.80;74248;5145.521;-12757.195;1;239;-450;-451.6;37.2;37.5;4;4.5;29.3;0.0;
19/10/2023 22:00:51;100;0;240.69;17;-17.48;0.23;296.8;9.80;74238;5145.519;-12757.200;1;239;-450;-451.6;37.2;37.7;2;1.8;29.2;0.0;
19/10/2023 22:01:11;100;0;240.68;17;-17.72;-1.28;299.6;9.80;74244;5145.517;-12757.206;1;239;-450;-451.6;37.2;37.5;2;1.4;29.3;0.0;
19/10/2023 22:01:31;100;0;241.95;17;-17.54;-1.32;302.5;9.80;74246;5145.515;-12757.211;1;239;-450;-451.6;37.2;37.5;2;1.4;29.3;0.0;
19/10/2023 22:01:51;100;0;244.04;17;-17.54;-1.32;305.4;9.70;74230;5145.513;-12757.217;1;239;-450;-451.6;37.2;37.5;2;1.4;29.3;0.0;
19/10/2023 22:02:11;100;0;245.68;17;-17.56;-1.27;308.2;9.70;74239;5145.512;-12757.223;1;239;-450;-453.2;37.2;37.5;2;0.9;29.3;0.0;
19/10/2023 22:02:31;100;0;247.22;17;-17.43;-1.25;310.9;9.70;74233;5145.510;-12757.228;1;239;-450;-453.2;37.2;37.5;4;4.1;29.3;0.0;
19/10/2023 22:02:51;100;0;247.48;17;-17.53;0.23;313.7;9.70;74221;5145.509;-12757.234;1;239;-450;-450.0;37.2;37.5;4;4.5;29.3;0.0;
19/10/2023 22:03:11;100;0;248.24;17;-17.59;0.29;316.5;9.70;74229;5145.507;-12757.240;1;239;-450;-451.6;37.2;37.5;4;4.5;29.3;0.0;
19/10/2023 22:03:31;100;0;248.97;17;-17.57;0.20;319.3;9.60;74226;5145.506;-12757.246;1;239;-450;-451.6;37.2;37.5;6;5.9;29.3;0.0;
19/10/2023 22:03:51;100;0;248.48;17;-17.38;1.00;322.1;9.60;74218;5145.505;-12757.252;1;239;-450;-451.6;37.2;37.5;6;5.9;29.3;0.0;
19/10/2023 22:04:11;100;0;249.10;17;-17.48;1.05;324.8;9.60;74211;5145.503;-12757.258;1;239;-450;-451.6;37.2;37.7;6;5.9;29.3;0.0;
19/10/2023 22:04:31;100;0;249.54;17;-17.39;0.95;327.6;9.60;74224;5145.502;-12757.263;1;239;-450;-453.2;37.2;37.5;6;5.9;29.3;0.0;
19/10/2023 22:04:51;100;0;248.95;17;-17.52;0.94;330.2;9.60;74230;5145.501;-12757.269;1;239;-450;-450.0;37.2;37.5;6;5.9;29.3;0.0;
19/10/2023 22:05:11;100;0;249.67;17;-17.42;1.04;332.9;9.50;74208;5145.499;-12757.275;1;239;-450;-451.6;37.2;37.7;6;5.9;29.3;45.0;
19/10/2023 22:05:31;100;0;249.48;17;-17.30;0.99;335.6;9.50;74226;5145.498;-12757.281;1;239;-450;-453.2;37.2;37.5;6;5.9;29.3;42.3;
19/10/2023 22:05:51;100;0;248.38;17;-17.28;0.99;338.2;9.50;74206;5145.497;-12757.286;1;239;-450;-451.6;37.2;37.5;6;5.9;29.3;39.6;
19/10/2023 22:06:11;100;0;247.45;17;-17.44;0.99;340.9;9.50;74217;5145.495;-12757.292;1;239;-450;-451.6;37.2;37.5;6;5.9;29.3;37.0;
19/10/2023 22:06:31;100;0;247.16;17;-17.29;0.91;343.6;9.50;74212;5145.494;-12757.297;1;239;-450;-451.6;37.2;37.5;6;5.9;29.2;34.4;
19/10/2023 22:06:51;100;0;246.11;17;-17.32;0.90;346.2;9.40;74208;5145.492;-12757.303;1;239;-450;-451.6;37.2;37.5;4;4.1;29.3;31.7;
19/10/2023 22:07:11;100;0;246.22;17;-17.40;-0.20;348.8;9.40;74216;5145.491;-12757.309;1;239;-450;-454.8;37.2;37.7;4;3.6;29.2;29.0;
19/10/2023 22:07:31;100;0;244.05;17;-17.54;0.29;351.6;9.40;74220;5145.489;-12757.314;1;239;-450;-451.6;37.2;37.5;4;3.6;29.3;26.4;
19/10/2023 22:07:36;118;0;243.87;17;-17.26;-0.11;352.1;9.40;74210;5145.489;-12757.315;1;239;450;-450.0;50.0;50.1;-2;-2.3;29.3;25.8;
19/10/2023 22:07:46;118;0;171.82;17;-32.19;-2.85;353.8;9.40;74132;5145.487;-12757.315;1;239;450;-395.2;50.0;50.2;-2;-2.3;29.2;-1.0;
19/10/2023 22:07:56;118;0;173.35;17;-39.05;-2.82;356.1;9.40;73864;5145.486;-12757.315;1;239;450;-271.0;50.0;50.4;-2;-2.3;28.6;-1.0;
19/10/2023 22:08:06;118;0;173.75;17;-40.07;-3.26;358.2;9.40;73592;5145.484;-12757.314;1;239;450;-146.8;50.0;50.4;-2;-2.3;28.7;-1.0;
19/10/2023 22:08:16;118;0;173.95;17;-40.38;-3.24;359.5;9.40;73365;5145.484;-12757.314;1;239;450;-22.6;50.0;50.4;-2;-2.3;28.6;-1.0;
19/10/2023 22:08:26;118;0;174.53;17;-40.72;-3.34;359.2;9.40;73100;5145.483;-12757.314;1;239;450;101.6;50.0;50.4;-2;-1.8;28.6;-1.0;
19/10/2023 22:08:36;118;0;166.93;17;-19.72;-2.71;357.8;9.40;72837;5145.482;-12757.313;1;239;450;230.6;50.0;50.4;-2;-2.3;28.6;-1.0;
19/10/2023 22:08:46;118;0;154.73;17;-15.27;-2.75;356.3;9.40;72601;5145.480;-12757.312;1;239;450;358.1;50.0;50.4;-2;-2.3;28.6;-1.0;
19/10/2023 22:08:56;118;0;134.20;17;-15.40;-2.52;354.7;9.40;72352;5145.478;-12757.309;1;239;450;454.8;50.0;50.4;-2;-2.3;28.6;-1.0;
19/10/2023 22:09:06;118;0;114.59;17;3.34;-3.30;353.6;9.40;72346;5145.478;-12757.308;1;239;450;456.5;50.0;50.4;-2;-2.3;29.2;-1.0;
19/10/2023 22:09:26;117;0;44.97;17;3.50;-3.12;350.6;9.30;72330;5145.479;-12757.305;1;239;450;456.5;42.0;41.9;-2;-2.3;29.2;-1.0;
19/10/2023 22:09:46;117;0;348.44;17;-1.54;-2.92;348.2;9.30;72339;5145.481;-12757.306;1;239;450;458.1;36.1;36.0;-70;-40.6;29.2;-1.0;
19/10/2023 22:10:06;117;0;259.97;17;-13.47;-38.05;345.4;9.30;72329;5145.480;-12757.313;1;239;450;458.1;26.7;26.5;-19;-30.7;29.2;-1.0;
19/10/2023 22:10:26;117;0;180.05;17;2.10;-10.39;343.1;9.30;72333;5145.478;-12757.313;1;239;450;459.7;21.9;21.9;70;21.7;29.2;-1.0;
19/10/2023 22:10:46;117;0;212.20;17;-0.85;34.19;340.3;9.30;72334;5145.477;-12757.314;1;239;450;459.7;16.3;16.0;28;29.8;29.2;-1.0;
19/10/2023 22:11:06;117;0;206.31;17;1.36;12.34;337.3;9.20;72333;5145.476;-12757.315;1;239;450;458.1;11.3;11.3;37;37.5;29.2;-1.0;
19/10/2023 22:11:26;117;0;207.91;17;20.46;20.87;334.6;9.20;72323;5145.473;-12757.318;1;239;450;458.1;12.0;12.0;34;33.8;29.2;-1.0;
19/10/2023 22:11:46;117;0;228.24;17;35.39;16.35;327.6;9.20;72325;5145.469;-12757.324;1;239;450;459.7;17.2;17.4;3;2.7;29.2;-1.0;
19/10/2023 22:12:06;117;0;233.36;17;32.92;0.80;318.0;9.20;72323;5145.465;-12757.334;1;239;450;459.7;21.7;21.6;0;-0.5;29.2;-1.0;
19/10/2023 22:12:26;117;0;236.85;17;27.05;-0.75;309.4;9.10;72312;5145.460;-12757.345;1;239;450;461.3;24.4;24.4;0;-0.5;29.2;-1.0;
19/10/2023 22:12:46;117;0;241.67;17;21.17;-1.00;302.7;9.10;72312;5145.456;-12757.357;1;239;450;459.7;25.4;25.4;0;-0.5;29.2;-1.0;
19/10/2023 22:13:06;117;0;246.39;17;17.45;-1.05;297.8;9.10;72313;5145.453;-12757.367;1;239;450;459.7;25.4;25.6;-2;-2.3;29.2;-1.0;
19/10/2023 22:13:26;117;0;249.02;17;16.52;-1.92;293.5;9.10;72307;5145.451;-12757.377;1;239;450;458.1;24.9;25.0;-4;-4.1;29.2;-1.0;
19/10/2023 22:13:46;117;0;250.10;17;17.89;-2.80;289.2;9.10;72301;5145.449;-12757.386;1;239;450;459.7;24.9;24.8;-4;-4.1;29.2;-1.0;
19/10/2023 22:14:06;117;0;251.30;17;18.17;-2.70;284.6;9.10;72292;5145.447;-12757.395;1;239;450;459.7;24.9;24.8;-6;-6.3;29.3;-1.0;
19/10/2023 22:14:26;117;0;250.34;17;18.26;-3.93;280.2;9.10;72303;5145.445;-12757.405;1;239;450;459.7;24.9;24.7;-6;-6.8;29.2;-1.0;
19/10/2023 22:14:46;117;0;249.50;17;18.45;-3.82;275.5;9.00;72284;5145.443;-12757.414;1;239;450;461.3;24.9;24.7;-6;-6.3;29.2;-1.0;
19/10/2023 22:15:06;117;0;249.06;17;18.33;-3.87;270.9;9.00;72282;5145.441;-12757.424;1;239;450;459.7;24.9;24.7;-4;-3.6;29.2;-1.0;
19/10/2023 22:15:26;117;0;251.02;17;18.38;-2.20;266.4;9.00;72275;5145.439;-12757.433;1;239;450;459.7;24.9;24.7;-6;-5.9;29.2;-1.0;
19/10/2023 22:15:46;117;0;251.15;17;18.32;-3.86;261.9;9.00;72276;5145.437;-12757.443;1;239;450;459.7;24.9;24.7;-6;-6.3;29.2;-1.0;
19/10/2023 22:16:06;117;0;250.73;17;18.30;-3.77;257.4;9.00;72279;5145.434;-12757.452;1;239;450;459.7;24.9;24.7;-6;-6.3;29.2;-1.0;
19/10/2023 22:16:26;117;0;249.64;17;18.34;-3.74;253.0;9.00;72281;5145.432;-12757.461;1;239;450;459.7;24.9;24.7;-6;-6.3;29.2;-1.0;
19/10/2023 22:16:46;117;0;249.78;17;18.36;-3.39;248.5;9.00;72264;5145.430;-12757.471;1;239;450;459.7;24.9;24.7;-6;-6.3;29.2;-1.0;
19/10/2023 22:17:06;117;0;251.24;17;18.26;-3.73;244.1;8.90;72262;5145.428;-12757.480;1;239;450;461.3;24.9;24.7;-6;-6.3;29.2;-1.0;
19/10/2023 22:17:26;117;0;250.67;17;18.35;-3.72;239.8;8.90;72254;5145.426;-12757.489;1;239;450;459.7;24.9;24.7;-6;-6.3;29.2;-1.0;
19/10/2023 22:17:46;117;0;250.33;17;18.19;-3.73;235.4;8.90;72257;5145.424;-12757.498;1;239;450;461.3;24.9;24.7;-6;-6.3;29.2;-1.0;
19/10/2023 22:18:06;117;0;249.32;17;18.16;-3.80;230.9;8.90;72259;5145.422;-12757.508;1;239;450;461.3;24.9;24.7;-6;-6.3;29.2;-1.0;
19/10/2023 22:18:26;117;0;249.18;17;18.17;-3.76;226.6;8.90;72256;5145.420;-12757.516;1;239;450;459.7;24.9;24.7;-6;-6.3;29.2;-1.0;
19/10/2023 22:18:46;117;0;247.81;17;18.32;-4.03;222.1;8.90;72259;5145.418;-12757.526;1;239;450;459.7;24.9;24.7;-4;-4.1;29.2;-1.0;
19/10/2023 22:19:06;117;0;250.43;17;18.16;-2.26;217.7;8.90;72255;5145.416;-12757.535;1;239;450;458.1;24.9;24.7;-6;-5.9;29.3;-1.0;
19/10/2023 22:19:26;117;0;250.91;17;18.05;-3.54;213.4;8.90;72250;5145.414;-12757.544;1;239;450;459.7;24.9;24.7;-6;-5.9;29.2;-1.0;
19/10/2023 22:19:46;117;0;249.61;17;17.89;-3.80;209.1;8.90;72253;5145.412;-12757.553;1;239;450;461.3;24.9;24.7;-6;-5.9;29.2;-1.0;
19/10/2023 22:20:06;117;0;249.15;17;17.89;-3.50;204.8;8.80;72243;5145.410;-12757.562;1;239;450;461.3;24.9;24.7;-6;-5.9;29.2;-1.0;
19/10/2023 22:20:26;117;0;249.40;17;17.55;-3.21;200.6;8.80;72232;5145.408;-12757.571;1;239;450;459.7;24.9;24.7;-6;-5.9;29.2;-1.0;
19/10/2023 22:20:46;117;0;249.67;17;18.02;-3.43;196.6;8.80;72238;5145.406;-12757.579;1;239;450;461.3;24.9;24.7;-6;-5.9;29.2;-1.0;
19/10/2023 22:21:06;117;0;251.03;17;17.91;-3.71;192.4;8.80;72238;5145.404;-12757.588;1;239;450;459.7;24.9;24.7;-6;-5.9;29.2;-1.0;
19/10/2023 22:21:26;117;0;252.69;17;17.84;-3.51;188.3;8.80;72234;5145.402;-12757.597;1;239;450;459.7;24.9;24.7;-9;-9.0;29.2;-1.0;
19/10/2023 22:21:46;117;0;252.30;17;17.88;-5.50;184.1;8.80;72228;5145.400;-12757.605;1;239;450;461.3;24.9;24.7;-9;-9.5;29.2;-1.0;
19/10/2023 22:22:06;117;0;252.46;17;17.48;-5.35;179.8;8.80;72234;5145.399;-12757.615;1;239;450;461.3;24.9;24.7;-9;-9.5;29.2;-1.0;
19/10/2023 22:22:26;117;0;250.18;17;17.41;-5.73;175.7;8.80;72223;5145.397;-12757.624;1;239;450;461.3;24.9;24.7;-6;-5.9;29.2;-1.0;
19/10/2023 22:22:46;117;0;249.57;17;17.68;-3.65;171.5;8.80;72238;5145.394;-12757.632;1;239;450;459.7;24.9;24.7;-6;-5.4;29.2;-1.0;
19/10/2023 22:23:06;117;0;249.45;17;17.74;-3.31;167.2;8.80;72223;5145.392;-12757.641;1;239;450;461.3;24.9;24.7;-6;-5.4;29.2;-1.0;
19/10/2023 22:23:26;117;0;250.56;17;17.79;-3.69;163.0;8.80;72230;5145.391;-12757.650;1;239;450;461.3;24.9;24.7;-6;-5.4;29.2;-1.0;
19/10/2023 22:23:46;117;0;248.04;17;17.82;-3.22;158.7;8.80;72214;5145.388;-12757.659;1;239;450;461.3;24.9;24.7;-4;-3.6;29.3;-1.0;
19/10/2023 22:24:06;117;0;248.75;17;17.84;-2.79;154.3;8.70;72214;5145.386;-12757.668;1;239;450;458.1;24.9;24.7;-4;-3.2;29.2;-1.0;
19/10/2023 22:24:26;117;0;250.16;17;17.33;-2.24;149.8;8.70;72214;5145.384;-12757.678;1;239;450;459.7;24.9;24.7;-6;-6.3;29.2;-1.0;
19/10/2023 22:24:46;117;0;252.64;17;17.29;-3.92;145.4;8.70;72226;5145.382;-12757.687;1;239;450;461.3;24.9;24.7;-9;-9.0;29.2;-1.0;
19/10/2023 22:25:06;117;0;252.39;17;17.14;-5.59;141.1;8.70;72216;5145.380;-12757.697;1;239;450;461.3;24.9;24.7;-9;-9.5;29.2;-1.0;
19/10/2023 22:25:26;117;0;250.50;17;16.79;-5.77;136.8;8.70;72224;5145.378;-12757.706;1;239;450;461.3;24.6;24.4;-7;-6.8;29.2;-1.0;
19/10/2023 22:25:46;117;0;248.87;17;17.33;-4.06;132.6;8.70;72222;5145.376;-12757.715;1;239;450;461.3;24.6;24.4;-5;-5.0;29.2;-1.0;
19/10/2023 22:26:07;117;0;246.61;17;17.66;-3.22;128.5;8.70;72233;5145.374;-12757.723;1;239;450;459.7;24.6;24.2;-5;-4.5;29.2;-1.0;
19/10/2023 22:26:27;117;0;247.37;17;17.75;-3.05;124.3;8.70;72231;5145.372;-12757.732;1;239;450;461.3;24.6;24.4;-5;-4.5;29.2;-1.0;
19/10/2023 22:26:47;117;0;247.38;17;17.51;-3.35;119.8;8.70;72231;5145.369;-12757.741;1;239;450;461.3;24.6;24.4;-5;-4.5;29.2;-1.0;
19/10/2023 22:27:07;117;0;250.21;17;17.14;-3.17;115.5;8.70;72242;5145.367;-12757.750;1;239;450;459.7;24.6;24.2;-7;-7.2;29.2;-1.0;
19/10/2023 22:27:27;117;0;246.75;17;17.45;-5.00;111.2;8.70;72241;5145.365;-12757.760;1;239;450;459.7;24.6;24.2;-4;-4.1;29.2;-1.0;
19/10/2023 22:27:47;117;0;244.52;17;16.27;-2.58;106.7;8.70;72242;5145.362;-12757.769;1;239;450;459.7;24.0;23.9;-4;-3.6;29.2;-1.0;
19/10/2023 22:28:07;117;0;247.83;17;17.21;-3.08;102.5;8.70;72254;5145.360;-12757.778;1;239;450;461.3;24.0;23.8;-4;-3.6;29.2;-1.0;
19/10/2023 22:28:27;117;0;246.02;17;16.30;-2.39;98.2;8.70;72277;5145.357;-12757.787;1;239;450;461.3;23.5;23.6;-4;-3.6;29.2;-1.0;
19/10/2023 22:28:47;117;0;245.36;17;16.50;-2.62;93.9;8.70;72311;5145.354;-12757.797;1;239;450;461.3;23.1;23.1;-4;-3.6;29.2;-1.0;
19/10/2023 22:29:07;117;0;248.00;17;17.64;-2.09;89.7;8.80;72339;5145.352;-12757.805;1;239;450;461.3;23.1;23.0;-4;-3.6;29.2;-1.0;
19/10/2023 22:29:27;117;0;247.85;17;17.52;-2.62;85.4;8.80;72354;5145.350;-12757.814;1;239;450;461.3;23.1;22.8;-4;-3.6;29.2;-1.0;
19/10/2023 22:29:47;117;0;246.09;17;17.60;-2.53;81.1;8.80;72380;5145.348;-12757.823;1;239;450;461.3;23.1;23.0;-4;-3.6;29.2;-1.0;
19/10/2023 22:30:07;117;0;246.71;17;15.87;-2.87;76.7;8.80;72413;5145.345;-12757.832;1;239;450;461.3;22.4;22.2;-4;-3.6;29.2;-1.0;
19/10/2023 22:30:27;117;0;249.15;17;17.85;-2.52;72.6;8.90;72448;5145.343;-12757.841;1;239;450;462.9;22.4;22.1;-6;-5.9;29.2;-1.0;
19/10/2023 22:30:47;117;0;246.17;17;17.97;-4.04;68.3;8.90;72479;5145.341;-12757.850;1;239;450;461.3;22.4;22.1;-4;-4.1;29.2;-1.0;
19/10/2023 22:31:07;117;0;247.98;17;18.13;-2.46;64.2;8.90;72513;5145.339;-12757.858;1;239;450;461.3;22.4;22.1;-4;-3.2;29.2;-1.0;
19/10/2023 22:31:27;117;0;248.91;17;17.98;-2.52;59.8;9.00;72542;5145.336;-12757.867;1;239;450;462.9;22.4;22.1;-6;-6.3;29.2;-1.0;
19/10/2023 22:31:47;117;0;245.10;17;17.69;-3.96;55.6;9.00;72574;5145.334;-12757.876;1;239;450;461.3;22.4;22.1;-4;-3.6;29.2;-1.0;
19/10/2023 22:32:07;117;0;246.39;17;17.83;-2.32;51.6;9.10;72601;5145.332;-12757.884;1;239;450;461.3;22.4;22.1;-4;-3.2;29.2;-1.0;
19/10/2023 22:32:27;117;0;251.19;17;17.38;-2.29;47.5;9.10;72626;5145.330;-12757.893;1;239;450;461.3;22.4;22.1;-8;-8.1;29.3;-1.0;
19/10/2023 22:32:47;117;0;251.33;17;17.57;-5.29;43.7;9.20;72639;5145.328;-12757.901;1;239;450;461.3;22.4;22.1;-8;-8.6;29.2;-1.0;
19/10/2023 22:33:07;117;0;252.27;17;17.42;-5.15;40.0;9.20;72646;5145.327;-12757.909;1;239;450;462.9;22.4;22.1;-8;-8.6;29.2;-1.0;
19/10/2023 22:33:27;117;0;251.60;17;17.06;-5.39;36.4;9.30;72655;5145.325;-12757.917;1;239;450;462.9;22.4;22.1;-8;-8.6;29.2;-1.0;
19/10/2023 22:33:47;117;0;249.77;17;16.66;-5.39;32.7;9.30;72673;5145.323;-12757.925;1;239;450;461.3;22.0;22.1;-8;-8.6;29.2;-1.0;
19/10/2023 22:34:07;117;0;246.79;17;16.44;-5.36;29.0;9.40;72667;5145.321;-12757.932;1;239;450;462.9;21.6;21.5;-5;-5.0;29.2;-1.0;
19/10/2023 22:34:27;117;0;248.51;17;17.44;-2.80;25.3;9.40;72683;5145.319;-12757.940;1;239;450;462.9;21.6;21.5;-5;-4.1;29.2;-1.0;
19/10/2023 22:34:47;117;0;246.70;17;17.69;-3.14;21.4;9.50;72689;5145.317;-12757.949;1;239;450;461.3;21.6;21.5;-5;-4.1;29.2;-1.0;
19/10/2023 22:35:07;117;0;245.91;17;18.13;-2.76;17.3;9.50;72695;5145.315;-12757.957;1;239;450;461.3;21.6;21.5;-5;-4.1;29.3;-1.0;
19/10/2023 22:35:27;117;0;248.16;17;18.03;-2.89;13.4;9.50;72693;5145.313;-12757.965;1;239;450;461.3;21.6;21.5;-5;-4.1;29.2;-1.0;
19/10/2023 22:35:47;117;0;249.46;17;17.99;-2.22;9.5;9.60;72696;5145.311;-12757.973;1;239;450;461.3;21.6;21.3;-7;-7.7;29.2;-1.0;
