Timestamp;NavState;SecurityLevel;Heading;Declination;Pitch;Roll;Depth;Temperature;Pa;Lat;Lon;DeadReckoning;DesiredH;BallastCmd;BallastPos;LinCmd;LinPos;AngCmd;AngPos;Voltage;Altitude;
19/10/2023 20:54:59;117;0;258.09;17;19.48;-2.18;7.3;14.10;73426;5145.647;-12756.513;1;249;350;361.3;20.2;19.8;-2;-2.3;29.3;-1.0;
19/10/2023 20:55:18;115;0;264.23;17;19.38;-2.88;3.3;14.00;73436;5145.647;-12756.522;1;249;500;362.9;100.0;32.2;0;0.9;29.3;-1.0;
19/10/2023 20:55:28;115;0;231.75;17;-10.02;-1.16;1.7;14.00;73341;5145.645;-12756.525;1;249;500;422.6;100.0;100.2;0;0.9;29.2;-1.0;
19/10/2023 20:55:38;115;0;265.94;17;-77.78;-4.01;2.7;14.00;73111;5145.645;-12756.526;1;249;500;496.8;100.0;100.6;0;1.4;29.0;-1.0;
19/10/2023 20:55:48;115;0;254.77;17;-29.58;-0.63;-0.2;14.00;73121;5145.645;-12756.530;1;249;500;500.0;100.0;100.5;0;1.4;29.3;-1.0;
19/10/2023 20:56:08;116;0;277.88;17;-62.71;-3.11;-0.2;13.90;73123;5145.645;-12756.530;1;249;500;500.0;100.0;100.5;0;1.4;29.3;-1.0;
19/10/2023 20:56:36;116;0;243.41;17;-54.17;-1.32;-0.1;13.90;73129;5145.664;-12756.448;0;249;500;500.0;100.0;100.6;0;1.4;29.3;-1.0;
19/10/2023 20:57:10;116;0;242.92;17;-56.52;-1.91;-0.0;13.90;73131;5145.664;-12756.447;0;249;500;500.0;100.0;100.6;0;1.4;29.3;-1.0;
19/10/2023 20:57:30;116;0;238.76;17;-61.23;-4.25;-0.1;13.90;73126;5145.664;-12756.447;0;249;500;501.6;100.0;100.6;0;1.4;29.3;-1.0;
19/10/2023 20:57:50;116;0;236.95;17;-58.53;-2.45;0.0;13.90;73135;5145.665;-12756.447;0;249;500;500.0;100.0;100.6;0;1.4;29.3;-1.0;
19/10/2023 20:58:10;116;0;235.45;17;-56.85;-2.08;0.0;13.90;73135;5145.669;-12756.439;0;249;500;500.0;100.0;100.5;0;1.4;29.3;-1.0;
19/10/2023 21:01:26;116;0;237.29;17;-59.67;-1.36;0.1;14.10;73136;5145.670;-12756.439;0;249;500;501.6;100.0;100.5;0;1.4;29.3;-1.0;
19/10/2023 21:01:46;116;0;239.51;17;-53.83;-3.74;0.0;14.10;73124;5145.670;-12756.439;0;249;500;501.6;100.0;100.6;0;0.9;29.3;-1.0;
19/10/2023 21:02:06;116;0;233.81;17;-53.95;-1.18;0.0;14.10;73126;5145.670;-12756.439;0;249;500;500.0;100.0;100.6;0;1.4;29.3;-1.0;
19/10/2023 21:02:26;116;0;249.55;17;-54.07;-3.81;0.0;14.10;73131;5145.671;-12756.438;0;249;500;500.0;100.0;100.6;0;1.4;29.3;-1.0;
19/10/2023 21:02:46;116;0;252.19;17;-58.28;-1.88;0.1;14.10;73127;5145.670;-12756.438;0;249;500;500.0;100.0;100.6;0;1.4;29.3;-1.0;
19/10/2023 21:03:06;116;0;255.56;17;-55.12;-2.42;0.1;14.10;73127;5145.671;-12756.437;0;249;500;500.0;100.0;100.5;0;1.4;29.3;-1.0;
19/10/2023 21:03:26;116;0;253.40;17;-55.63;-3.97;0.0;14.20;73129;5145.672;-12756.437;0;249;500;501.6;100.0;100.5;0;0.9;29.3;-1.0;
19/10/2023 21:03:46;116;0;263.23;17;-57.13;-0.87;-0.0;14.20;73130;5145.672;-12756.437;0;249;500;501.6;100.0;100.6;0;1.4;29.3;-1.0;
19/10/2023 21:04:06;116;0;264.10;17;-51.08;-1.76;-0.0;14.20;73133;5145.673;-12756.435;0;249;500;501.6;100.0;100.5;0;1.4;29.3;-1.0;
19/10/2023 21:04:26;116;0;264.17;17;-55.52;-1.23;0.1;14.20;73116;5145.674;-12756.433;0;249;500;501.6;100.0;100.6;0;0.9;29.3;-1.0;
19/10/2023 21:05:03;116;0;252.24;17;-55.92;-1.62;0.0;14.20;73122;5145.674;-12756.433;0;249;500;500.0;100.0;100.6;0;1.4;29.3;-1.0;
19/10/2023 21:05:23;116;0;269.89;17;-49.26;-0.97;0.1;14.20;73129;5145.674;-12756.434;0;249;500;500.0;100.0;100.6;0;1.4;29.1;-1.0;
19/10/2023 21:05:43;116;0;259.73;17;-56.74;-1.27;0.0;14.20;73125;5145.673;-12756.429;0;249;500;500.0;100.0;100.6;0;0.9;29.3;-1.0;
19/10/2023 21:06:16;116;0;269.12;17;-58.70;2.90;0.0;14.20;73117;5145.673;-12756.429;0;249;500;500.0;100.0;100.6;0;1.4;29.3;-1.0;
19/10/2023 21:06:36;116;0;259.34;17;-55.58;2.19;0.0;14.30;73125;5145.676;-12756.430;0;249;500;501.6;100.0;100.6;0;1.4;29.3;-1.0;
19/10/2023 21:06:56;116;0;251.65;17;-58.15;-0.54;-0.0;14.30;73130;5145.676;-12756.431;0;249;500;500.0;100.0;100.6;0;1.4;29.1;-1.0;
19/10/2023 21:07:16;116;0;256.40;17;-56.57;-1.01;0.0;14.30;73123;5145.676;-12756.430;0;249;500;500.0;100.0;100.5;0;1.4;29.3;-1.0;
19/10/2023 21:07:36;116;0;255.46;17;-52.92;-0.95;-0.0;14.40;73122;5145.676;-12756.430;0;249;500;500.0;100.0;100.6;0;1.4;29.1;-1.0;
19/10/2023 21:07:56;116;0;239.09;17;-56.00;-0.34;0.1;14.40;73118;5145.676;-12756.430;0;249;500;500.0;100.0;100.6;0;1.4;29.3;-1.0;
19/10/2023 21:08:16;110;0;250.49;17;-54.09;-1.72;0.0;14.40;73128;5145.676;-12756.430;0;249;-500;479.0;100.0;100.5;0;1.4;29.3;-1.0;
19/10/2023 21:08:26;110;0;242.59;17;-58.17;2.90;-0.0;14.40;73417;5145.676;-12756.430;1;249;-500;343.5;100.0;100.6;0;1.4;29.2;-1.0;
19/10/2023 21:08:36;110;0;237.22;17;-58.62;-3.39;0.2;14.40;73693;5145.676;-12756.430;1;249;-500;203.2;100.0;100.6;0;0.9;29.2;-1.0;
19/10/2023 21:08:46;110;0;237.37;17;-64.62;-2.73;0.6;14.40;73983;5145.676;-12756.431;1;249;-500;59.7;100.0;100.6;0;1.4;29.2;-1.0;
19/10/2023 21:08:56;110;0;241.39;17;-71.16;-10.51;0.9;14.40;74285;5145.676;-12756.431;1;249;-500;-88.7;95.0;95.0;0;1.4;29.2;-1.0;
19/10/2023 21:09:06;110;0;235.49;17;-68.28;-4.72;1.0;14.40;74607;5145.675;-12756.431;1;249;-500;-243.5;82.3;82.9;0;1.4;29.2;-1.0;
19/10/2023 21:09:16;110;0;237.72;17;-65.99;-3.43;2.5;14.40;74975;5145.675;-12756.432;1;249;-500;-417.7;68.2;70.3;0;1.4;29.1;-1.0;
19/10/2023 21:09:26;110;0;252.63;17;-61.76;-2.77;6.4;14.40;75205;5145.674;-12756.435;1;249;-500;-493.5;58.6;58.5;0;1.4;29.1;-1.0;
19/10/2023 21:09:46;100;0;255.44;17;-58.18;-1.89;18.0;14.40;75194;5145.673;-12756.445;1;249;-500;-493.5;48.6;48.7;0;0.9;29.3;-1.0;
19/10/2023 21:10:06;100;0;276.94;17;-51.29;-1.74;32.0;14.30;75193;5145.674;-12756.456;1;249;-500;-493.5;39.3;39.2;30;29.8;29.3;0.0;
19/10/2023 21:10:26;100;0;270.41;17;-37.44;13.31;43.7;14.30;75203;5145.674;-12756.469;1;249;-500;-493.5;34.0;34.0;19;18.5;29.3;0.0;
19/10/2023 21:10:46;100;0;263.68;17;-24.34;7.10;51.1;14.30;75193;5145.673;-12756.482;1;249;-500;-495.2;32.7;32.4;9;9.0;29.3;0.0;
19/10/2023 21:11:06;100;0;262.69;17;-17.30;2.42;56.1;14.20;75165;5145.672;-12756.494;1;249;-500;-495.2;33.5;33.6;7;6.8;29.3;0.0;
19/10/2023 21:11:26;100;0;268.34;17;-16.14;1.59;59.7;14.20;75134;5145.672;-12756.502;1;249;-500;-493.5;34.7;34.8;16;15.8;29.3;0.0;
19/10/2023 21:11:46;100;0;256.95;17;-17.36;6.21;62.9;14.10;75116;5145.671;-12756.509;1;249;-500;-495.2;35.5;35.7;2;1.8;29.3;0.0;
19/10/2023 21:12:06;100;0;256.03;17;-19.84;-1.10;66.0;14.10;75082;5145.670;-12756.516;1;249;-500;-495.2;35.5;35.9;2;1.4;29.3;0.0;
19/10/2023 21:12:26;100;0;254.55;17;-19.81;-0.97;69.3;14.00;75059;5145.669;-12756.522;1;249;-500;-493.5;35.5;35.9;2;1.8;29.3;0.0;
19/10/2023 21:12:46;100;0;251.84;17;-19.25;-1.21;72.9;14.00;75045;5145.667;-12756.530;1;249;-500;-495.2;35.5;35.9;0;0.0;29.3;0.0;
19/10/2023 21:13:06;100;0;252.92;17;-19.56;-1.96;76.2;13.90;75023;5145.666;-12756.536;1;249;-500;-495.2;35.5;35.9;0;0.0;29.3;0.0;
19/10/2023 21:13:26;100;0;256.09;17;-19.80;-1.82;79.6;13.90;75001;5145.665;-12756.543;1;249;-500;-495.2;35.5;35.9;2;1.8;29.3;0.0;
19/10/2023 21:13:46;100;0;256.81;17;-19.76;-0.44;83.3;13.80;74985;5145.664;-12756.550;1;249;-500;-495.2;35.5;35.9;2;2.3;29.3;0.0;
19/10/2023 21:14:06;100;0;261.73;17;-19.73;-0.57;87.1;13.70;74955;5145.663;-12756.558;1;249;-500;-495.2;35.5;35.9;6;5.9;29.3;0.0;
19/10/2023 21:14:26;100;0;263.86;17;-19.59;1.22;90.8;13.60;74933;5145.663;-12756.566;1;249;-500;-495.2;35.5;35.9;9;9.0;29.3;0.0;
19/10/2023 21:14:46;100;0;261.26;17;-19.31;2.71;94.5;13.60;74910;5145.662;-12756.574;1;249;-500;-495.2;35.5;36.0;6;5.4;29.3;0.0;
19/10/2023 21:15:06;100;0;257.38;17;-18.93;0.73;98.0;13.50;74899;5145.661;-12756.581;1;249;-500;-495.2;35.8;35.9;3;3.2;29.3;0.0;
19/10/2023 21:15:11;118;0;256.35;17;-19.02;-0.49;98.9;13.50;74897;5145.661;-12756.583;1;249;500;-495.2;50.0;49.9;0;-0.5;29.3;0.0;
19/10/2023 21:15:21;118;0;205.04;17;-32.45;-1.98;100.9;13.50;74815;5145.659;-12756.584;1;249;500;-443.5;50.0;50.1;0;-0.5;29.3;-1.0;
19/10/2023 21:15:31;118;0;211.15;17;-39.53;-2.91;104.0;13.40;74535;5145.658;-12756.586;1;249;500;-319.4;50.0;50.2;0;-0.5;28.9;-1.0;
19/10/2023 21:15:41;118;0;221.02;17;-41.98;-2.85;106.7;13.40;74268;5145.656;-12756.587;1;249;500;-196.8;50.0;50.2;0;-0.5;28.9;-1.0;
19/10/2023 21:15:51;118;0;227.77;17;-43.21;-2.25;108.8;13.40;73996;5145.656;-12756.589;1;249;500;-72.6;50.0;50.2;0;-0.5;28.9;-1.0;
19/10/2023 21:16:01;118;0;222.38;17;-43.29;-2.38;109.9;13.40;73731;5145.655;-12756.589;1;249;500;50.0;50.0;50.2;0;-0.5;28.9;-1.0;
19/10/2023 21:16:11;118;0;210.77;17;-38.82;-1.64;109.2;13.30;73462;5145.655;-12756.590;1;249;500;174.2;50.0;50.1;0;-0.5;28.9;-1.0;
19/10/2023 21:16:21;118;0;187.53;17;-23.74;-1.25;107.5;13.30;73220;5145.653;-12756.590;1;249;500;303.2;50.0;50.1;0;-0.5;28.9;-1.0;
19/10/2023 21:16:31;118;0;163.44;17;-16.12;-1.08;105.7;13.30;72952;5145.650;-12756.589;1;249;500;425.8;50.0;50.2;0;-0.5;28.9;-1.0;
19/10/2023 21:16:41;118;0;144.94;17;-17.55;-0.95;104.3;13.20;72742;5145.649;-12756.587;1;249;500;495.2;50.0;50.2;0;-0.5;28.9;-1.0;
19/10/2023 21:16:51;118;0;83.20;17;-26.33;1.36;101.7;13.20;72747;5145.649;-12756.583;1;249;500;496.8;50.0;50.2;0;-0.5;29.3;-1.0;
19/10/2023 21:17:11;117;0;306.08;17;-31.37;1.71;97.1;13.10;72758;5145.651;-12756.588;1;249;500;496.8;42.0;42.1;0;-0.5;29.3;-1.0;
19/10/2023 21:17:31;117;0;260.48;17;-16.15;-2.30;94.2;13.10;72746;5145.651;-12756.595;1;249;500;498.4;31.2;31.2;-5;-5.4;29.3;-1.0;
19/10/2023 21:17:51;117;0;241.59;17;-17.19;-4.75;91.5;13.00;72754;5145.649;-12756.600;1;249;500;500.0;20.0;19.8;1;1.4;29.3;-1.0;
19/10/2023 21:18:11;117;0;241.27;17;10.83;-0.62;88.5;12.90;72758;5145.647;-12756.607;1;249;500;498.4;17.2;17.1;1;1.4;29.3;-1.0;
19/10/2023 21:18:31;117;0;248.00;17;15.87;-1.69;85.3;12.80;72765;5145.645;-12756.613;1;249;500;498.4;16.0;16.0;1;1.4;29.3;-1.0;
19/10/2023 21:18:51;117;0;251.61;17;29.86;-0.26;79.7;12.80;72770;5145.643;-12756.621;1;249;500;500.0;19.0;18.9;1;1.4;29.3;-1.0;
19/10/2023 21:19:11;117;0;258.00;17;27.18;0.64;72.0;12.70;72790;5145.642;-12756.633;1;249;500;500.0;21.1;21.2;-3;-3.6;29.3;-1.0;
19/10/2023 21:19:31;117;0;264.85;17;22.48;-2.26;64.8;12.70;72807;5145.641;-12756.647;1;249;500;500.0;21.9;22.1;-10;-10.4;29.3;-1.0;
19/10/2023 21:19:51;117;0;267.23;17;19.46;-5.79;58.8;12.60;72827;5145.641;-12756.660;1;249;500;501.6;21.9;22.1;-14;-14.0;29.3;-1.0;
19/10/2023 21:20:11;117;0;259.27;17;17.02;-7.70;53.8;12.60;72858;5145.639;-12756.671;1;249;500;500.0;21.0;20.7;-4;-4.1;29.3;-1.0;
19/10/2023 21:20:31;117;0;261.98;17;19.28;-1.93;49.3;12.50;72890;5145.639;-12756.680;1;249;500;501.6;21.0;20.7;-7;-7.2;29.3;-1.0;
19/10/2023 21:20:51;117;0;260.22;17;18.68;-4.56;44.6;12.50;72939;5145.638;-12756.691;1;249;500;500.0;20.6;20.3;-5;-5.0;29.3;-1.0;
19/10/2023 21:21:11;117;0;265.09;17;19.25;-2.71;40.0;12.50;72962;5145.637;-12756.700;1;249;500;500.0;20.6;20.3;-11;-10.8;29.3;-1.0;
19/10/2023 21:21:31;117;0;262.36;17;19.50;-6.40;35.3;12.50;72963;5145.636;-12756.710;1;249;500;501.6;20.6;20.3;-7;-7.2;29.3;-1.0;
19/10/2023 21:21:51;117;0;260.71;17;19.66;-3.74;30.7;12.50;72985;5145.635;-12756.719;1;249;500;500.0;20.6;20.3;-5;-5.0;29.3;-1.0;
19/10/2023 21:22:11;117;0;256.91;17;19.37;-3.15;26.1;12.50;72988;5145.634;-12756.729;1;249;500;501.6;20.6;20.3;-2;-1.4;29.3;-1.0;
19/10/2023 21:22:31;117;0;257.51;17;19.82;-1.53;21.8;12.50;72985;5145.633;-12756.738;1;249;500;501.6;20.6;20.3;-2;-0.9;29.3;-1.0;
19/10/2023 21:22:51;117;0;257.92;17;19.18;-1.61;17.5;12.50;72965;5145.631;-12756.747;1;249;500;501.6;20.6;20.3;-2;-0.9;29.3;-1.0;
19/10/2023 21:23:11;117;0;264.28;17;17.81;-0.76;13.2;12.50;72969;5145.631;-12756.756;1;249;500;501.6;19.9;19.8;-10;-9.9;29.3;-1.0;
19/10/2023 21:23:31;117;0;261.23;17;18.02;-6.07;8.8;12.50;72971;5145.630;-12756.766;1;249;500;501.6;19.3;19.2;-6;-5.9;29.3;-1.0;
